{
  "type": "FeatureCollection",
  "features": [
    {"type":"Feature","properties":{"school":"9","city":"UPPER MARLBORO","name":"UNION UNITED METHODIST CHURCH","legis":"23B","congress":"5","council":"9","long":"-76.755473064","imprt_date":"2016-10-01T00:00:00.000Z","precinctid":"03-01","region":"4","address":"14418 OLD MARLBORO PIKE","route":"09","routingreg":"4-09","lat":"38.817622029"},"geometry":{"type":"Point","coordinates":[-76.75547306399994,38.81762202900006]}},{"type":"Feature","properties":{"school":"5","city":"UPPER MARLBORO","name":"PATUXENT ELEMENTARY SCHOOL","legis":"23B","congress":"5","council":"9","long":"-76.709745395","imprt_date":"2016-10-01T00:00:00.000Z","precinctid":"03-02","region":"4","address":"4410 BISHOPMILL DRIVE","route":"09","routingreg":"4-09","lat":"38.827524181"},"geometry":{"type":"Point","coordinates":[-76.70974539499997,38.82752418100006]}},{"type":"Feature","properties":{"school":"5","city":"UPPER MARLBORO","name":"ST MARY OF THE ASSUMPTION SCHOOL","legis":"23B","congress":"4","council":"6","long":"-76.749643754","imprt_date":"2016-10-01T00:00:00.000Z","precinctid":"03-03","region":"4","address":"4610 LARGO ROAD","route":"09","routingreg":"4-09","lat":"38.825339639"},"geometry":{"type":"Point","coordinates":[-76.74964375399998,38.82533963900005]}},{"type":"Feature","properties":{"school":"5","city":"UPPER MARLBORO","name":"PERRYWOOD ELEMENTARY SCHOOL","legis":"25","congress":"4","council":"6","long":"-76.781795259","imprt_date":"2016-10-01T00:00:00.000Z","precinctid":"03-04","region":"4","address":"501 WATKINS PARK DRIVE","route":"05","routingreg":"4-05","lat":"38.88365431"},"geometry":{"type":"Point","coordinates":[-76.78179525899998,38.883654310000054]}},{"type":"Feature","properties":{"school":"9","city":"UPPER MARLBORO","name":"ST THOMAS  PARISH HALL","legis":"27B","congress":"5","council":"9","long":"-76.759613833","imprt_date":"2016-10-01T00:00:00.000Z","precinctid":"04-01","region":"5","address":"14300 ST THOMAS CHURCH ROAD","route":"12","routingreg":"5-12","lat":"38.748794715"},"geometry":{"type":"Point","coordinates":[-76.75961383299995,38.74879471500003]}},{"type":"Feature","properties":{"school":"7","city":"FORESTVILLE","name":"FORESTVILLE MILITARY ACADEMY","legis":"25","congress":"4","council":"6","long":"-76.885425472","imprt_date":"2016-10-01T00:00:00.000Z","precinctid":"06-10","region":"5","address":"7001 BELTZ DRIVE","route":"01","routingreg":"5-01","lat":"38.836125479"},"geometry":{"type":"Point","coordinates":[-76.88542547199995,38.83612547900003]}},{"type":"Feature","properties":{"school":"7","city":"DISTRICT HEIGHTS","name":"E MICHAEL ROLL MUNICIPAL BLDG","legis":"25","congress":"4","council":"6","long":"-76.881455571","imprt_date":"2016-10-01T00:00:00.000Z","precinctid":"06-11","region":"3","address":"2000 MARBURY DRIVE","route":"08","routingreg":"3-08","lat":"38.862161605"},"geometry":{"type":"Point","coordinates":[-76.88145557099995,38.86216160500004]}},{"type":"Feature","properties":{"school":"7","city":"TEMPLE HILLS","name":"OVERLOOK ELEMENTARY SCHOOL","legis":"24","congress":"4","council":"7","long":"-76.950203079","imprt_date":"2016-10-01T00:00:00.000Z","precinctid":"06-12","region":"3","address":"3298 CURTIS DRIVE","route":"09","routingreg":"3-09","lat":"38.848725631"},"geometry":{"type":"Point","coordinates":[-76.95020307899995,38.848725631000036]}},{"type":"Feature","properties":{"school":"5","city":"UPPER MARLBORO","name":"FIRST BAPTIST CHURCH OF GLENARDEN","legis":"25","congress":"4","council":"6","long":"-76.778926615","imprt_date":"2016-10-01T00:00:00.000Z","precinctid":"03-06","region":"4","address":"600 WATKINS PARK DRIVE","route":"05","routingreg":"4-05","lat":"38.88186508"},"geometry":{"type":"Point","coordinates":[-76.77892661499999,38.88186508000007]}},{"type":"Feature","properties":{"school":"9","city":"ACCOKEEK","name":"FAITH UNITED METHODIST CHURCH","legis":"26","congress":"5","council":"9","long":"-77.005986382","imprt_date":"2016-10-01T00:00:00.000Z","precinctid":"05-12","region":"5","address":"15769 LIVINGSTON ROAD","route":"08","routingreg":"5-08","lat":"38.670048309"},"geometry":{"type":"Point","coordinates":[-77.00598638199995,38.67004830900004]}},{"type":"Feature","properties":{"school":"7","city":"SUITLAND","name":"MT ARARAT BAPTIST CHURCH","legis":"25","congress":"4","council":"7","long":"-76.922600506","imprt_date":"2016-10-01T00:00:00.000Z","precinctid":"06-24","region":"3","address":"4818 SUITLAND ROAD","route":"10","routingreg":"3-10","lat":"38.848212043"},"geometry":{"type":"Point","coordinates":[-76.92260050599998,38.848212043000046]}},{"type":"Feature","properties":{"school":"5","city":"BOWIE","name":"COLLINGTON STATION REC ASSOCIATION","legis":"23B","congress":"4","council":"4","long":"-76.743170119","imprt_date":"2016-10-01T00:00:00.000Z","precinctid":"07-15","region":"4","address":"375 JOHNSBERG LANE","route":"05","routingreg":"4-05","lat":"38.898736783"},"geometry":{"type":"Point","coordinates":[-76.74317011899996,38.89873678300006]}},{"type":"Feature","properties":{"school":"5","city":"BOWIE","name":"NORTHVIEW ELEM SCHOOL CAFE - A","legis":"23B","congress":"5","council":"4","long":"-76.743693165","imprt_date":"2016-10-01T00:00:00.000Z","precinctid":"07-16","region":"4","address":"3700 NORTHVIEW DRIVE","route":"03","routingreg":"4-03","lat":"38.94052151"},"geometry":{"type":"Point","coordinates":[-76.74369316499997,38.94052151000005]}},{"type":"Feature","properties":{"school":"5","city":"BOWIE","name":"NORTHVIEW ELEM SCHOOL CAFE - B","legis":"23B","congress":"5","council":"4","long":"-76.743693165","imprt_date":"2016-10-01T00:00:00.000Z","precinctid":"07-17","region":"4","address":"3700 NORTHVIEW DRIVE","route":"03","routingreg":"4-03","lat":"38.94052151"},"geometry":{"type":"Point","coordinates":[-76.74369316499997,38.94052151000005]}},{"type":"Feature","properties":{"school":"1","city":"LAUREL","name":"OAKLANDS ELEMENTARY SCHOOL","legis":"21","congress":"4","council":"1","long":"-76.849713012","imprt_date":"2016-10-01T00:00:00.000Z","precinctid":"10-09","region":"2","address":"13710 LAUREL-BOWIE ROAD","route":"01","routingreg":"2-01","lat":"39.078886539"},"geometry":{"type":"Point","coordinates":[-76.84971301199994,39.07888653900005]}},{"type":"Feature","properties":{"school":"1","city":"LAUREL","name":"THE TABERNACLE OF LAUREL MD - GYM","legis":"23A","congress":"4","council":"1","long":"-76.836818016","imprt_date":"2016-10-01T00:00:00.000Z","precinctid":"10-10","region":"2","address":"11601 SOUTH LAUREL DRIVE","route":"01","routingreg":"2-01","lat":"39.048248438"},"geometry":{"type":"Point","coordinates":[-76.83681801599994,39.04824843800003]}},{"type":"Feature","properties":{"school":"6","city":"CAPITOL HEIGHTS","name":"CAPITOL HEIGHTS ELEM SCH","legis":"24","congress":"4","council":"7","long":"-76.912507491","imprt_date":"2016-10-01T00:00:00.000Z","precinctid":"18-01","region":"3","address":"601 SUFFOLK AVENUE","route":"06","routingreg":"3-06","lat":"38.881856397"},"geometry":{"type":"Point","coordinates":[-76.91250749099999,38.881856397000035]}},{"type":"Feature","properties":{"school":"6","city":"SEAT PLEASANT","name":"SEAT PLEASANT ELEM SCH","legis":"24","congress":"4","council":"7","long":"-76.90727127","imprt_date":"2016-10-01T00:00:00.000Z","precinctid":"18-02","region":"3","address":"6411 G STREET","route":"05","routingreg":"3-05","lat":"38.897097762"},"geometry":{"type":"Point","coordinates":[-76.90727126999997,38.897097762000044]}},{"type":"Feature","properties":{"school":"6","city":"DISTRICT HEIGHTS","name":"FRANCIS SCOTT KEY ELEM SCHOOL","legis":"24","congress":"4","council":"7","long":"-76.904016545","imprt_date":"2016-10-01T00:00:00.000Z","precinctid":"18-04","region":"3","address":"2301 SCOTT KEY DRIVE","route":"06","routingreg":"3-06","lat":"38.860465936"},"geometry":{"type":"Point","coordinates":[-76.90401654499993,38.860465936000026]}},{"type":"Feature","properties":{"school":"4","city":"CAPITOL HEIGHTS","name":"ROBERT R GRAY ELEM SCH - MPR","legis":"47A","congress":"4","council":"5","long":"-76.92220265","imprt_date":"2016-10-01T00:00:00.000Z","precinctid":"18-05","region":"3","address":"4949 ADDISON ROAD","route":"03","routingreg":"3-03","lat":"38.908935763"},"geometry":{"type":"Point","coordinates":[-76.92220264999997,38.908935763000045]}},{"type":"Feature","properties":{"school":"6","city":"UPPER MARLBORO","name":"KETTERING MIDDLE SCHOOL","legis":"25","congress":"4","council":"6","long":"-76.811026422","imprt_date":"2016-10-01T00:00:00.000Z","precinctid":"13-11","region":"4","address":"65 HERRINGTON DRIVE","route":"08","routingreg":"4-08","lat":"38.894970477"},"geometry":{"type":"Point","coordinates":[-76.81102642199994,38.89497047700007]}},{"type":"Feature","properties":{"school":"6","city":"MITCHELLVILLE","name":"ERNEST EVERETT JUST MIDDLE SCH","legis":"24","congress":"4","council":"6","long":"-76.829474469","imprt_date":"2016-10-01T00:00:00.000Z","precinctid":"13-12","region":"4","address":"1300 CAMPUS WAY NORTH","route":"07","routingreg":"4-07","lat":"38.908111945"},"geometry":{"type":"Point","coordinates":[-76.82947446899993,38.90811194500003]}},{"type":"Feature","properties":{"school":"6","city":"UPPER MARLBORO","name":"KETTERING BAPTIST CHURCH","legis":"25","congress":"4","council":"6","long":"-76.808136143","imprt_date":"2016-10-01T00:00:00.000Z","precinctid":"13-13","region":"4","address":"1 KETTERING DRIVE","route":"08","routingreg":"4-08","lat":"38.896810975"},"geometry":{"type":"Point","coordinates":[-76.80813614299996,38.89681097500005]}},{"type":"Feature","properties":{"school":"4","city":"UPPER MARLBORO","name":"CHARLES H. FLOWERS HIGH SCHOOL - CAF","legis":"24","congress":"4","council":"5","long":"-76.836127364","imprt_date":"2016-10-01T00:00:00.000Z","precinctid":"13-14","region":"3","address":"10001 ARDWICK ARDMORE ROAD","route":"02","routingreg":"3-02","lat":"38.931936425"},"geometry":{"type":"Point","coordinates":[-76.83612736399994,38.93193642500006]}},{"type":"Feature","properties":{"school":"6","city":"MITCHELLVILLE","name":"KINGSFORD ELEM SCH - MPR","legis":"24","congress":"4","council":"5","long":"-76.796621778","imprt_date":"2016-10-01T00:00:00.000Z","precinctid":"13-15","region":"4","address":"1401 ENTERPRISE ROAD","route":"06","routingreg":"4-06","lat":"38.908320396"},"geometry":{"type":"Point","coordinates":[-76.79662177799997,38.90832039600008]}},{"type":"Feature","properties":{"school":"4","city":"LANDOVER","name":"COLUMBIA PARK ELEM SCH - GYM","legis":"47A","congress":"4","council":"5","long":"-76.887233842","imprt_date":"2016-10-01T00:00:00.000Z","precinctid":"13-17","region":"3","address":"1901 KENT VILLAGE DRIVE","route":"02","routingreg":"3-02","lat":"38.916694506"},"geometry":{"type":"Point","coordinates":[-76.88723384199994,38.916694506000056]}},{"type":"Feature","properties":{"school":"2","city":"GREENBELT","name":"GREENBELT COMMUNITY CENTER","legis":"22","congress":"5","council":"4","long":"-76.878745155","imprt_date":"2016-10-01T00:00:00.000Z","precinctid":"21-03","region":"2","address":"15 CRESCENT ROAD","route":"02","routingreg":"2-02","lat":"39.001182904"},"geometry":{"type":"Point","coordinates":[-76.87874515499993,39.001182904000075]}},{"type":"Feature","properties":{"school":"2","city":"COLLEGE PARK","name":"HOLLYWOOD ELEMENTARY SCHOOL","legis":"21","congress":"5","council":"1","long":"-76.922647134","imprt_date":"2016-10-01T00:00:00.000Z","precinctid":"21-04","region":"1","address":"9811 49TH AVENUE","route":"05","routingreg":"1-05","lat":"39.015224965"},"geometry":{"type":"Point","coordinates":[-76.92264713399999,39.01522496500007]}},{"type":"Feature","properties":{"school":"3","city":"ADELPHI","name":"BUCK LODGE MIDDLE SCHOOL","legis":"47B","congress":"4","council":"1","long":"-76.960721615","imprt_date":"2016-10-01T00:00:00.000Z","precinctid":"21-05","region":"1","address":"2611 BUCK LODGE ROAD","route":"04","routingreg":"1-04","lat":"39.010811675"},"geometry":{"type":"Point","coordinates":[-76.96072161499995,39.01081167500007]}},{"type":"Feature","properties":{"school":"2","city":"GREENBELT","name":"GREENBELT ELEMENTARY SCHOOL","legis":"22","congress":"5","council":"4","long":"-76.877195103","imprt_date":"2016-10-01T00:00:00.000Z","precinctid":"21-06","region":"2","address":"66 RIDGE ROAD","route":"02","routingreg":"2-02","lat":"39.01229396"},"geometry":{"type":"Point","coordinates":[-76.87719510299996,39.01229396000008]}},{"type":"Feature","properties":{"school":"2","city":"BERWYN HEIGHTS","name":"BERWYN HEIGHTS ELEM SCH","legis":"22","congress":"5","council":"3","long":"-76.909465774","imprt_date":"2016-10-01T00:00:00.000Z","precinctid":"21-07","region":"1","address":"6200 PONTIAC STREET","route":"05","routingreg":"1-05","lat":"38.991893508"},"geometry":{"type":"Point","coordinates":[-76.90946577399995,38.99189350800003]}},{"type":"Feature","properties":{"school":"2","city":"GREENBELT","name":"SPRINGHILL LAKE ELEM SCH","legis":"22","congress":"5","council":"4","long":"-76.903047664","imprt_date":"2016-10-01T00:00:00.000Z","precinctid":"21-08","region":"2","address":"6060 SPRINGHILL DRIVE","route":"02","routingreg":"2-02","lat":"39.006333591"},"geometry":{"type":"Point","coordinates":[-76.90304766399998,39.00633359100004]}},{"type":"Feature","properties":{"school":"2","city":"COLLEGE PARK","name":"WESTCHESTER TOWER","legis":"22","congress":"5","council":"4","long":"-76.899281017","imprt_date":"2016-10-01T00:00:00.000Z","precinctid":"21-09","region":"1","address":"6200 WESTCHESTER PARK DRIVE","route":"05","routingreg":"1-05","lat":"38.992062309"},"geometry":{"type":"Point","coordinates":[-76.89928101699996,38.99206230900006]}},{"type":"Feature","properties":{"school":"2","city":"COLLEGE PARK","name":"COLLEGE PARK UNITED METHODIST CHURCH","legis":"21","congress":"5","council":"1","long":"-76.921392167","imprt_date":"2016-10-01T00:00:00.000Z","precinctid":"21-10","region":"2","address":"9601 RHODE ISLAND AVENUE","route":"02","routingreg":"2-02","lat":"39.010819149"},"geometry":{"type":"Point","coordinates":[-76.92139216699996,39.01081914900004]}},{"type":"Feature","properties":{"school":"2","city":"LANHAM","name":"MAGNOLIA ELEMENTARY SCHOOL","legis":"22","congress":"5","council":"3","long":"-76.862434238","imprt_date":"2016-10-01T00:00:00.000Z","precinctid":"21-11","region":"2","address":"8400 NIGHTINGALE DRIVE","route":"04","routingreg":"2-04","lat":"38.984222816"},"geometry":{"type":"Point","coordinates":[-76.86243423799993,38.984222816000056]}},{"type":"Feature","properties":{"school":"2","city":"HYATTSVILLE","name":"COLLEGE PARK ACADEMY - GYM","legis":"22","congress":"5","council":"3","long":"-76.953918718","imprt_date":"2016-10-01T00:00:00.000Z","precinctid":"21-12","region":"1","address":"7501 ADELPHI ROAD","route":"06","routingreg":"1-06","lat":"38.983168208"},"geometry":{"type":"Point","coordinates":[-76.95391871799995,38.98316820800005]}},{"type":"Feature","properties":{"school":"1","city":"LAUREL","name":"JAMES H. HARRISON ELEM SCH","legis":"23A","congress":"5","council":"1","long":"-76.862327312","imprt_date":"2016-10-01T00:00:00.000Z","precinctid":"10-06","region":"1","address":"13200 LARCHDALE ROAD","route":"02","routingreg":"1-02","lat":"39.072236962"},"geometry":{"type":"Point","coordinates":[-76.86232731199993,39.072236962000034]}},{"type":"Feature","properties":{"school":"6","city":"CAPITOL HEIGHTS","name":"CEDAR HEIGHTS COMMUNITY CENTER","legis":"47A","congress":"4","council":"5","long":"-76.903610852","imprt_date":"2016-10-01T00:00:00.000Z","precinctid":"18-03","region":"3","address":"1200 GLEN WILLOW DRIVE","route":"03","routingreg":"3-03","lat":"38.905569542"},"geometry":{"type":"Point","coordinates":[-76.90361085199999,38.90556954200008]}},{"type":"Feature","properties":{"school":"4","city":"RIVERDALE","name":"COMMUNITY BIBLE BAPTIST CHURCH","legis":"47A","congress":"4","council":"3","long":"-76.885818544","imprt_date":"2016-10-01T00:00:00.000Z","precinctid":"20-02","region":"2","address":"7309 RIVERDALE ROAD","route":"06","routingreg":"2-06","lat":"38.961515812"},"geometry":{"type":"Point","coordinates":[-76.88581854399996,38.96151581200007]}},{"type":"Feature","properties":{"school":"1","city":"ADELPHI","name":"HILLANDALE BAPTIST CHURCH","legis":"21","congress":"4","council":"1","long":"-76.96356428","imprt_date":"2016-10-01T00:00:00.000Z","precinctid":"21-14","region":"1","address":"2601 POWDER MILL ROAD","route":"04","routingreg":"1-04","lat":"39.026552776"},"geometry":{"type":"Point","coordinates":[-76.96356427999996,39.026552776000074]}},{"type":"Feature","properties":{"school":"2","city":"ADELPHI","name":"CHEROKEE LANE ELEM SCH","legis":"21","congress":"5","council":"3","long":"-76.963421618","imprt_date":"2016-10-01T00:00:00.000Z","precinctid":"21-15","region":"1","address":"9000 25TH AVENUE","route":"04","routingreg":"1-04","lat":"39.005046989"},"geometry":{"type":"Point","coordinates":[-76.96342161799998,39.00504698900005]}},{"type":"Feature","properties":{"school":"3","city":"BRENTWOOD","name":"BRENTWOOD TOWN HALL - WOHLFARTH BLDG","legis":"47A","congress":"4","council":"2","long":"-76.95581414","imprt_date":"2016-10-01T00:00:00.000Z","precinctid":"17-02","region":"1","address":"4300 39TH PLACE","route":"10","routingreg":"1-10","lat":"38.942976127"},"geometry":{"type":"Point","coordinates":[-76.95581413999997,38.942976127000065]}},{"type":"Feature","properties":{"school":"6","city":"CAPITOL HEIGHTS","name":"CARMODY HILLS ELEM SCH","legis":"24","congress":"4","council":"7","long":"-76.8881901","imprt_date":"2016-10-01T00:00:00.000Z","precinctid":"18-07","region":"3","address":"401 JADELEAF AVENUE","route":"05","routingreg":"3-05","lat":"38.895708837"},"geometry":{"type":"Point","coordinates":[-76.88819009999997,38.89570883700003]}},{"type":"Feature","properties":{"school":"6","city":"LANDOVER","name":"HIGHLAND PARK ELEM SCH","legis":"24","congress":"4","council":"7","long":"-76.893962239","imprt_date":"2016-10-01T00:00:00.000Z","precinctid":"18-08","region":"3","address":"6501 LOWLAND DRIVE","route":"04","routingreg":"3-04","lat":"38.903488168"},"geometry":{"type":"Point","coordinates":[-76.89396223899996,38.903488168000024]}},{"type":"Feature","properties":{"school":"6","city":"SEAT PLEASANT","name":"SAINT MARGARET CATHOLIC SCH","legis":"24","congress":"4","council":"7","long":"-76.896292358","imprt_date":"2016-10-01T00:00:00.000Z","precinctid":"18-09","region":"3","address":"408 ADDISON ROAD S","route":"05","routingreg":"3-05","lat":"38.88280131"},"geometry":{"type":"Point","coordinates":[-76.89629235799998,38.88280131000005]}},{"type":"Feature","properties":{"school":"6","city":"LANDOVER","name":"PEPPER MILL COMMUNITY CTR - GYM","legis":"24","congress":"4","council":"7","long":"-76.884246811","imprt_date":"2016-10-01T00:00:00.000Z","precinctid":"18-10","region":"3","address":"610 HILL ROAD","route":"05","routingreg":"3-05","lat":"38.89853693"},"geometry":{"type":"Point","coordinates":[-76.88424681099997,38.898536930000034]}},{"type":"Feature","properties":{"school":"6","city":"CAPITOL HEIGHTS","name":"BRADBURY HEIGHTS ELEM SCH","legis":"24","congress":"4","council":"7","long":"-76.928507459","imprt_date":"2016-10-01T00:00:00.000Z","precinctid":"18-11","region":"3","address":"1401 GLACIER AVENUE","route":"07","routingreg":"3-07","lat":"38.871059723"},"geometry":{"type":"Point","coordinates":[-76.92850745899995,38.87105972300003]}},{"type":"Feature","properties":{"school":"4","city":"CHEVERLY","name":"JUDITH P HOYER EARLY CHILD CTR - GYM","legis":"47A","congress":"4","council":"5","long":"-76.916372654","imprt_date":"2016-10-01T00:00:00.000Z","precinctid":"18-12","region":"3","address":"2300 BELLEVIEW AVENUE","route":"03","routingreg":"3-03","lat":"38.919282747"},"geometry":{"type":"Point","coordinates":[-76.91637265399999,38.91928274700007]}},{"type":"Feature","properties":{"school":"9","city":"BRANDYWINE","name":"BRANDYWINE ELEMENTARY SCHOOL","legis":"27A","congress":"5","council":"9","long":"-76.852550058","imprt_date":"2016-10-01T00:00:00.000Z","precinctid":"11-04","region":"5","address":"14101 BRANDYWINE ROAD","route":"13","routingreg":"5-13","lat":"38.696518664"},"geometry":{"type":"Point","coordinates":[-76.85255005799996,38.69651866400005]}},{"type":"Feature","properties":{"school":"8","city":"FORT WASHINGTON","name":"J. FRANK DENT ELEMENTARY SCHOOL","legis":"25","congress":"4","council":"8","long":"-76.960960219","imprt_date":"2016-10-01T00:00:00.000Z","precinctid":"12-16","region":"5","address":"2700 CORNING AVE","route":"03","routingreg":"5-03","lat":"38.809909307"},"geometry":{"type":"Point","coordinates":[-76.96096021899996,38.809909307000055]}},{"type":"Feature","properties":{"school":"9","city":"UPPER MARLBORO","name":"MELWOOD CHURCH OF THE NAZARENE","legis":"23B","congress":"5","council":"9","long":"-76.834772139","imprt_date":"2016-10-01T00:00:00.000Z","precinctid":"15-06","region":"5","address":"6906 WOODYARD ROAD","route":"11","routingreg":"5-11","lat":"38.794267502"},"geometry":{"type":"Point","coordinates":[-76.83477213899994,38.794267502000025]}},{"type":"Feature","properties":{"school":"8","city":"TEMPLE HILLS","name":"ALLENWOOD ELEMENTARY SCHOOL","legis":"26","congress":"4","council":"8","long":"-76.930172713","imprt_date":"2016-10-01T00:00:00.000Z","precinctid":"12-17","region":"5","address":"6300 HARLEY LANE","route":"03","routingreg":"5-03","lat":"38.803018868"},"geometry":{"type":"Point","coordinates":[-76.93017271299993,38.80301886800004]}},{"type":"Feature","properties":{"school":"7","city":"FORESTVILLE","name":"CHESAPEAKE MATH AND IT ACADEMY","legis":"25","congress":"4","council":"7","long":"-76.900432656","imprt_date":"2016-10-01T00:00:00.000Z","precinctid":"06-16","region":"3","address":"6201 SURREY SQUARE LANE","route":"08","routingreg":"3-08","lat":"38.845389474"},"geometry":{"type":"Point","coordinates":[-76.90043265599996,38.84538947400006]}},{"type":"Feature","properties":{"school":"7","city":"TEMPLE HILLS","name":"JESSIE B. MASON SCHOOL","legis":"26","congress":"4","council":"7","long":"-76.951470828","imprt_date":"2016-10-01T00:00:00.000Z","precinctid":"06-17","region":"3","address":"2720 IVERSON STREET","route":"09","routingreg":"3-09","lat":"38.838240858"},"geometry":{"type":"Point","coordinates":[-76.95147082799997,38.83824085800006]}},{"type":"Feature","properties":{"school":"4","city":"GLENARDEN","name":"JUDGE SYLVANIA W. WOODS  ELEM SCH - GYM","legis":"24","congress":"4","council":"5","long":"-76.872443633","imprt_date":"2016-10-01T00:00:00.000Z","precinctid":"20-07","region":"2","address":"3000 CHURCH ST","route":"07","routingreg":"2-07","lat":"38.933122387"},"geometry":{"type":"Point","coordinates":[-76.87244363299999,38.933122387000026]}},{"type":"Feature","properties":{"school":"4","city":"SEABROOK","name":"SEABROOK ELEMENTARY SCHOOL","legis":"22","congress":"4","council":"3","long":"-76.84083132","imprt_date":"2016-10-01T00:00:00.000Z","precinctid":"20-08","region":"2","address":"6001 SEABROOK ROAD","route":"04","routingreg":"2-04","lat":"38.968036777"},"geometry":{"type":"Point","coordinates":[-76.84083131999995,38.968036777000066]}},{"type":"Feature","properties":{"school":"4","city":"GLENNDALE","name":"GLENN DALE ELEMENTARY SCHOOL","legis":"24","congress":"4","council":"3","long":"-76.816621462","imprt_date":"2016-10-01T00:00:00.000Z","precinctid":"20-09","region":"2","address":"6700 GLENN DALE ROAD","route":"03","routingreg":"2-03","lat":"38.981359218"},"geometry":{"type":"Point","coordinates":[-76.81662146199994,38.98135921800008]}},{"type":"Feature","properties":{"school":"2","city":"LANHAM","name":"GOOD LUCK COMMUNITY CENTER","legis":"22","congress":"5","council":"3","long":"-76.860004468","imprt_date":"2016-10-01T00:00:00.000Z","precinctid":"20-10","region":"2","address":"8601 GOOD LUCK ROAD","route":"04","routingreg":"2-04","lat":"38.976947737"},"geometry":{"type":"Point","coordinates":[-76.86000446799994,38.976947737000046]}},{"type":"Feature","properties":{"school":"1","city":"BELTSVILLE","name":"VANSVILLE ELEMENTARY SCHOOL","legis":"21","congress":"5","council":"1","long":"-76.890420576","imprt_date":"2016-10-01T00:00:00.000Z","precinctid":"01-06","region":"1","address":"6813 AMMENDALE ROAD","route":"02","routingreg":"1-02","lat":"39.047440388"},"geometry":{"type":"Point","coordinates":[-76.89042057599994,39.04744038800004]}},{"type":"Feature","properties":{"school":"4","city":"BLADENSBURG","name":"BLADENSBURG ELEM  SCH - MPR","legis":"47A","congress":"4","council":"5","long":"-76.93168209","imprt_date":"2016-10-01T00:00:00.000Z","precinctid":"02-01","region":"3","address":"4915 ANNAPOLIS ROAD","route":"01","routingreg":"3-01","lat":"38.938526465"},"geometry":{"type":"Point","coordinates":[-76.93168208999998,38.93852646500005]}},{"type":"Feature","properties":{"school":"4","city":"COLMAR MANOR","name":"COLMAR MANOR TOWN HALL/COMMUNITY CTR","legis":"47A","congress":"4","council":"5","long":"-76.95031851","imprt_date":"2016-10-01T00:00:00.000Z","precinctid":"02-02","region":"3","address":"3701 LAWRENCE ST","route":"01","routingreg":"3-01","lat":"38.931758624"},"geometry":{"type":"Point","coordinates":[-76.95031850999999,38.931758624000054]}},{"type":"Feature","properties":{"school":"4","city":"CHEVERLY","name":"GLADYS NOON SPELLMAN ELEM SCH - GYM","legis":"47A","congress":"4","council":"5","long":"-76.907309593","imprt_date":"2016-10-01T00:00:00.000Z","precinctid":"02-03","region":"3","address":"3324 64TH AVENUE","route":"01","routingreg":"3-01","lat":"38.930730776"},"geometry":{"type":"Point","coordinates":[-76.90730959299998,38.930730776000075]}},{"type":"Feature","properties":{"school":"4","city":"LANDOVER HILLS","name":"LANDOVER HILLS TOWN HALL","legis":"47A","congress":"4","council":"3","long":"-76.893602342","imprt_date":"2016-10-01T00:00:00.000Z","precinctid":"02-04","region":"2","address":"6904 TAYLOR STREET","route":"08","routingreg":"2-08","lat":"38.941432768"},"geometry":{"type":"Point","coordinates":[-76.89360234199995,38.94143276800003]}},{"type":"Feature","properties":{"school":"4","city":"BLADENSBURG","name":"ROGERS HEIGHTS ELEM SCH - MPR","legis":"47A","congress":"4","council":"5","long":"-76.912655243","imprt_date":"2016-10-01T00:00:00.000Z","precinctid":"02-05","region":"2","address":"4301 58TH AVENUE","route":"08","routingreg":"2-08","lat":"38.944939871"},"geometry":{"type":"Point","coordinates":[-76.91265524299996,38.94493987100003]}},{"type":"Feature","properties":{"school":"2","city":"RIVERDALE","name":"RIVERDALE ELEMENTARY SCHOOL","legis":"22","congress":"5","council":"3","long":"-76.928311872","imprt_date":"2016-10-01T00:00:00.000Z","precinctid":"19-01","region":"1","address":"5006 RIVERDALE ROAD","route":"08","routingreg":"1-08","lat":"38.961306818"},"geometry":{"type":"Point","coordinates":[-76.92831187199994,38.961306818000025]}},{"type":"Feature","properties":{"school":"2","city":"RIVERDALE","name":"PARKDALE HIGH SCHOOL - SMALL GYM","legis":"22","congress":"5","council":"3","long":"-76.904592678","imprt_date":"2016-10-01T00:00:00.000Z","precinctid":"19-02","region":"1","address":"6001 GOOD LUCK ROAD","route":"07","routingreg":"1-07","lat":"38.969794599"},"geometry":{"type":"Point","coordinates":[-76.90459267799997,38.96979459900007]}},{"type":"Feature","properties":{"school":"3","city":"HYATTSVILLE","name":"UNIVERSITY PARK ELEM SCH","legis":"22","congress":"5","council":"3","long":"-76.943441588","imprt_date":"2016-10-01T00:00:00.000Z","precinctid":"19-03","region":"1","address":"4315 UNDERWOOD STREET","route":"08","routingreg":"1-08","lat":"38.97052938"},"geometry":{"type":"Point","coordinates":[-76.94344158799998,38.97052938000007]}},{"type":"Feature","properties":{"school":"4","city":"RIVERDALE","name":"TEMPLETON ELEMENTARY SCHOOL","legis":"22","congress":"4","council":"3","long":"-76.914568193","imprt_date":"2016-10-01T00:00:00.000Z","precinctid":"19-04","region":"1","address":"6001 CARTERS LANE","route":"07","routingreg":"1-07","lat":"38.952505685"},"geometry":{"type":"Point","coordinates":[-76.91456819299998,38.95250568500006]}},{"type":"Feature","properties":{"school":"2","city":"NEW CARROLLTON","name":"NEW CARROLLTON MUNICIPAL CTR","legis":"22","congress":"5","council":"3","long":"-76.865417883","imprt_date":"2016-10-01T00:00:00.000Z","precinctid":"20-01","region":"2","address":"6016 PRINCESS GARDEN PARKWAY","route":"05","routingreg":"2-05","lat":"38.964621262"},"geometry":{"type":"Point","coordinates":[-76.86541788299996,38.96462126200004]}},{"type":"Feature","properties":{"school":"6","city":"UPPER MARLBORO","name":"ARDMORE ELEM  SCH  - MPR","legis":"24","congress":"4","council":"5","long":"-76.84658961","imprt_date":"2016-10-01T00:00:00.000Z","precinctid":"20-03","region":"2","address":"9301 ARDWICK ARDMORE ROAD","route":"07","routingreg":"2-07","lat":"38.934405061"},"geometry":{"type":"Point","coordinates":[-76.84658960999997,38.934405061000064]}},{"type":"Feature","properties":{"school":"4","city":"LANHAM","name":"THOMAS JOHNSON MIDDLE SCH - MPR","legis":"24","congress":"4","council":"5","long":"-76.840835155","imprt_date":"2016-10-01T00:00:00.000Z","precinctid":"20-04","region":"2","address":"5401 BARKER PLACE","route":"04","routingreg":"2-04","lat":"38.960824365"},"geometry":{"type":"Point","coordinates":[-76.84083515499998,38.960824365000065]}},{"type":"Feature","properties":{"school":"2","city":"NEW CARROLLTON","name":"CHARLES CARROLL MIDDLE SCHOOL","legis":"22","congress":"5","council":"3","long":"-76.88145368","imprt_date":"2016-10-01T00:00:00.000Z","precinctid":"20-05","region":"2","address":"6130 LAMONT DRIVE","route":"05","routingreg":"2-05","lat":"38.967282634"},"geometry":{"type":"Point","coordinates":[-76.88145367999994,38.96728263400007]}},{"type":"Feature","properties":{"school":"2","city":"NEW CARROLLTON","name":"MARGARET BRENT SPECIAL CENTER","legis":"22","congress":"5","council":"3","long":"-76.882217438","imprt_date":"2016-10-01T00:00:00.000Z","precinctid":"20-06","region":"2","address":"5816 LAMONT TERRACE","route":"05","routingreg":"2-05","lat":"38.96422716"},"geometry":{"type":"Point","coordinates":[-76.88221743799994,38.964227160000064]}},{"type":"Feature","properties":{"school":"5","city":"UPPER MARLBORO","name":"UPPER MARLBORO COMMUNITY CENTER","legis":"23B","congress":"4","council":"6","long":"-76.743999954","imprt_date":"2016-10-01T00:00:00.000Z","precinctid":"03-05","region":"4","address":"5400 MARLBORO RACE TRACK ROAD","route":"09","routingreg":"4-09","lat":"38.814499185"},"geometry":{"type":"Point","coordinates":[-76.74399995399995,38.814499185000045]}},{"type":"Feature","properties":{"school":"5","city":"BOWIE","name":"VILLAGE BAPTIST CHURCH","legis":"23B","congress":"5","council":"4","long":"-76.724976479","imprt_date":"2016-10-01T00:00:00.000Z","precinctid":"07-14","region":"4","address":"1950 MITCHELLVILLE ROAD","route":"04","routingreg":"4-04","lat":"38.914707942"},"geometry":{"type":"Point","coordinates":[-76.72497647899996,38.914707942000064]}},{"type":"Feature","properties":{"school":"3","city":"MT RAINIER","name":"THOMAS S STONE ELEM SCH","legis":"47A","congress":"4","council":"2","long":"-76.962709962","imprt_date":"2016-10-01T00:00:00.000Z","precinctid":"17-04","region":"1","address":"4500 34TH STREET","route":"10","routingreg":"1-10","lat":"38.945835835"},"geometry":{"type":"Point","coordinates":[-76.96270996199996,38.945835835000025]}},{"type":"Feature","properties":{"school":"2","city":"GREENBELT","name":"TURNING POINT ACADEMY","legis":"22","congress":"5","council":"4","long":"-76.87067337","imprt_date":"2016-10-01T00:00:00.000Z","precinctid":"21-18","region":"2","address":"7800 GOOD LUCK ROAD","route":"04","routingreg":"2-04","lat":"38.980608762"},"geometry":{"type":"Point","coordinates":[-76.87067336999996,38.98060876200003]}},{"type":"Feature","properties":{"school":"7","city":"CAMP SPRINGS","name":"PRINCETON ELEMENTARY SCHOOL","legis":"26","congress":"4","council":"8","long":"-76.90232323","imprt_date":"2016-10-01T00:00:00.000Z","precinctid":"06-18","region":"5","address":"6101 BAXTER DRIVE","route":"01","routingreg":"5-01","lat":"38.813241699"},"geometry":{"type":"Point","coordinates":[-76.90232322999998,38.81324169900006]}},{"type":"Feature","properties":{"school":"6","city":"DISTRICT HEIGHTS","name":"CONCORD ELEMENTARY SCHOOL","legis":"24","congress":"4","council":"7","long":"-76.907815577","imprt_date":"2016-10-01T00:00:00.000Z","precinctid":"06-19","region":"3","address":"2004 CONCORD LANE","route":"06","routingreg":"3-06","lat":"38.863235907"},"geometry":{"type":"Point","coordinates":[-76.90781557699995,38.863235907000046]}},{"type":"Feature","properties":{"school":"6","city":"CAPITOL HEIGHTS","name":"JOHN H BAYNE ELEM SCH","legis":"25","congress":"4","council":"6","long":"-76.884992817","imprt_date":"2016-10-01T00:00:00.000Z","precinctid":"06-20","region":"3","address":"7010 WALKER MILL ROAD","route":"06","routingreg":"3-06","lat":"38.872566297"},"geometry":{"type":"Point","coordinates":[-76.88499281699995,38.87256629700005]}},{"type":"Feature","properties":{"school":"7","city":"SUITLAND","name":"ST. BERNADINE'S CHURCH  - SIENA HALL","legis":"25","congress":"4","council":"7","long":"-76.920096453","imprt_date":"2016-10-01T00:00:00.000Z","precinctid":"06-21","region":"3","address":"2400 BROOKS DRIVE","route":"07","routingreg":"3-07","lat":"38.85779002"},"geometry":{"type":"Point","coordinates":[-76.92009645299999,38.85779002000004]}},{"type":"Feature","properties":{"school":"7","city":"FORESTVILLE","name":"ANDREW JACKSON ACADEMY","legis":"25","congress":"4","council":"7","long":"-76.908375992","imprt_date":"2016-10-01T00:00:00.000Z","precinctid":"06-22","region":"3","address":"3500 REGENCY PARKWAY","route":"09","routingreg":"3-09","lat":"38.84098202"},"geometry":{"type":"Point","coordinates":[-76.90837599199995,38.84098202000007]}},{"type":"Feature","properties":{"school":"7","city":"FORESTVILLE","name":"NORTH FORESTVILLE ELEM SCH","legis":"25","congress":"4","council":"6","long":"-76.874070106","imprt_date":"2016-10-01T00:00:00.000Z","precinctid":"06-23","region":"3","address":"2311 RITCHIE ROAD","route":"08","routingreg":"3-08","lat":"38.857267995"},"geometry":{"type":"Point","coordinates":[-76.87407010599998,38.85726799500003]}},{"type":"Feature","properties":{"school":"5","city":"MITCHELLVILLE","name":"WOODMORE ELEMENTARY SCHOOL","legis":"23B","congress":"4","council":"6","long":"-76.789012289","imprt_date":"2016-10-01T00:00:00.000Z","precinctid":"07-01","region":"4","address":"12500 WOODMORE ROAD","route":"06","routingreg":"4-06","lat":"38.925730562"},"geometry":{"type":"Point","coordinates":[-76.78901228899997,38.92573056200007]}},{"type":"Feature","properties":{"school":"5","city":"BOWIE","name":"BELAIR ANNEX","legis":"23B","congress":"5","council":"4","long":"-76.742981296","imprt_date":"2016-10-01T00:00:00.000Z","precinctid":"07-02","region":"4","address":"3021 BELAIR DRIVE","route":"02","routingreg":"4-02","lat":"38.971696288"},"geometry":{"type":"Point","coordinates":[-76.74298129599998,38.97169628800003]}},{"type":"Feature","properties":{"school":"5","city":"BOWIE","name":"GRACE LUTHERAN CHURCH FELLOWSHIP HALL","legis":"23B","congress":"5","council":"4","long":"-76.73070628","imprt_date":"2016-10-01T00:00:00.000Z","precinctid":"07-04","region":"4","address":"2503 BELAIR DRIVE","route":"03","routingreg":"4-03","lat":"38.963506353"},"geometry":{"type":"Point","coordinates":[-76.73070627999994,38.96350635300007]}},{"type":"Feature","properties":{"school":"5","city":"BOWIE","name":"TULIP GROVE ELEMENTARY AT MEADOWBROOK","legis":"23A","congress":"5","council":"4","long":"-76.750419303","imprt_date":"2016-10-01T00:00:00.000Z","precinctid":"07-05","region":"4","address":"3501 Moylan Dr","route":"02","routingreg":"4-02","lat":"38.980983867"},"geometry":{"type":"Point","coordinates":[-76.75041930299994,38.98098386700008]}},{"type":"Feature","properties":{"school":"5","city":"BOWIE","name":"POINTER RIDGE ELEM SCH","legis":"23B","congress":"5","council":"4","long":"-76.72826912","imprt_date":"2016-10-01T00:00:00.000Z","precinctid":"07-06","region":"4","address":"1110 PARKINGTON LANE","route":"04","routingreg":"4-04","lat":"38.90509161"},"geometry":{"type":"Point","coordinates":[-76.72826911999994,38.905091610000056]}},{"type":"Feature","properties":{"school":"5","city":"BOWIE","name":"HEATHER HILLS ELEM SCH","legis":"23B","congress":"5","council":"4","long":"-76.731518812","imprt_date":"2016-10-01T00:00:00.000Z","precinctid":"07-07","region":"4","address":"12605 HEMING LANE","route":"03","routingreg":"4-03","lat":"38.951717831"},"geometry":{"type":"Point","coordinates":[-76.73151881199993,38.95171783100005]}},{"type":"Feature","properties":{"school":"5","city":"BOWIE","name":"C ELIZABETH REIG SPECIAL CTR","legis":"23B","congress":"5","council":"4","long":"-76.734061039","imprt_date":"2016-10-01T00:00:00.000Z","precinctid":"07-08","region":"4","address":"15542 PEACH WALKER DRIVE","route":"04","routingreg":"4-04","lat":"38.920318444"},"geometry":{"type":"Point","coordinates":[-76.73406103899998,38.92031844400003]}},{"type":"Feature","properties":{"school":"5","city":"BOWIE","name":"TALL OAKS VOCATIONAL HIGH","legis":"23B","congress":"5","council":"4","long":"-76.758645538","imprt_date":"2016-10-01T00:00:00.000Z","precinctid":"07-09","region":"4","address":"2112 CHURCH RD","route":"06","routingreg":"4-06","lat":"38.919501604"},"geometry":{"type":"Point","coordinates":[-76.75864553799994,38.91950160400006]}},{"type":"Feature","properties":{"school":"5","city":"BOWIE","name":"ALL SAINTS LUTHERAN CHURCH","legis":"23B","congress":"5","council":"4","long":"-76.717949424","imprt_date":"2016-10-01T00:00:00.000Z","precinctid":"07-10","region":"4","address":"16510 MOUNT OAK ROAD","route":"04","routingreg":"4-04","lat":"38.926673644"},"geometry":{"type":"Point","coordinates":[-76.71794942399998,38.92667364400006]}},{"type":"Feature","properties":{"school":"1","city":"LAUREL","name":"THE TABERNACLE OF LAUREL MD - MIRACLE CENTER","legis":"23A","congress":"5","council":"1","long":"-76.83680187","imprt_date":"2016-10-01T00:00:00.000Z","precinctid":"10-11","region":"2","address":"11601 SOUTH LAUREL DRIVE","route":"01","routingreg":"2-01","lat":"39.048251676"},"geometry":{"type":"Point","coordinates":[-76.83680186999999,39.04825167600006]}},{"type":"Feature","properties":{"school":"1","city":"LAUREL","name":"ROBERT J. DIPIETRO COMMUNITY CENTER","legis":"21","congress":"4","council":"1","long":"-76.866492268","imprt_date":"2016-10-01T00:00:00.000Z","precinctid":"10-12","region":"1","address":"7901 CYPRESS STREET","route":"02","routingreg":"1-02","lat":"39.082617047"},"geometry":{"type":"Point","coordinates":[-76.86649226799994,39.08261704700004]}},{"type":"Feature","properties":{"school":"9","city":"BRANDYWINE","name":"GWYNN PARK MIDDLE SCHOOL","legis":"27B","congress":"5","council":"9","long":"-76.868809709","imprt_date":"2016-10-01T00:00:00.000Z","precinctid":"11-01","region":"5","address":"8000 DYSON ROAD","route":"13","routingreg":"5-13","lat":"38.706789295"},"geometry":{"type":"Point","coordinates":[-76.86880970899995,38.70678929500008]}},{"type":"Feature","properties":{"school":"9","city":"UPPER MARLBORO","name":"MATTAPONI ELEMENTARY SCHOOL","legis":"27B","congress":"5","council":"9","long":"-76.805518408","imprt_date":"2016-10-01T00:00:00.000Z","precinctid":"11-02","region":"5","address":"11701 DULEY STATION ROAD","route":"12","routingreg":"5-12","lat":"38.7483058"},"geometry":{"type":"Point","coordinates":[-76.80551840799995,38.748305800000026]}},{"type":"Feature","properties":{"school":"9","city":"UPPER MARLBORO","name":"ROSARYVILLE ELEMENTARY SCHOOL","legis":"27B","congress":"5","council":"9","long":"-76.820977651","imprt_date":"2016-10-01T00:00:00.000Z","precinctid":"11-03","region":"5","address":"9925 ROSARYVILLE ROAD","route":"11","routingreg":"5-11","lat":"38.758824783"},"geometry":{"type":"Point","coordinates":[-76.82097765099996,38.75882478300008]}},{"type":"Feature","properties":{"school":"6","city":"UPPER MARLBORO","name":"MT EPHRAIM CHURCH /SCHOOL - GYM","legis":"25","congress":"4","council":"6","long":"-76.811292361","imprt_date":"2016-10-01T00:00:00.000Z","precinctid":"07-12","region":"4","address":"610 LARGO ROAD","route":"08","routingreg":"4-08","lat":"38.881699136"},"geometry":{"type":"Point","coordinates":[-76.81129236099997,38.881699136000066]}},{"type":"Feature","properties":{"school":"5","city":"LARGO","name":"SAINT JOSEPH CATHOLIC CHURCH","legis":"24","congress":"4","council":"6","long":"-76.843641307","imprt_date":"2016-10-01T00:00:00.000Z","precinctid":"07-13","region":"4","address":"2020 ST JOSEPH DRIVE","route":"06","routingreg":"4-06","lat":"38.91809289"},"geometry":{"type":"Point","coordinates":[-76.84364130699998,38.918092890000025]}},{"type":"Feature","properties":{"school":"9","city":"BRANDYWINE","name":"BADEN ELEMENTARY SCHOOL","legis":"27A","congress":"5","council":"9","long":"-76.769942056","imprt_date":"2016-10-01T00:00:00.000Z","precinctid":"08-01","region":"5","address":"13601 BADEN-WESTWOOD ROAD","route":"13","routingreg":"5-13","lat":"38.660823583"},"geometry":{"type":"Point","coordinates":[-76.76994205599993,38.660823583000024]}},{"type":"Feature","properties":{"school":"9","city":"CLINTON","name":"STEPHEN DECATUR MIDDLE SCHOOL","legis":"25","congress":"5","council":"9","long":"-76.908308627","imprt_date":"2016-10-01T00:00:00.000Z","precinctid":"09-01","region":"5","address":"8200 PINEWOOD DRIVE","route":"09","routingreg":"5-09","lat":"38.776765915"},"geometry":{"type":"Point","coordinates":[-76.90830862699994,38.776765915000055]}},{"type":"Feature","properties":{"school":"8","city":"CLINTON","name":"JAMES RYDER RANDALL ELEM SCH","legis":"25","congress":"5","council":"9","long":"-76.914021652","imprt_date":"2016-10-01T00:00:00.000Z","precinctid":"09-02","region":"5","address":"5410 KIRBY ROAD","route":"09","routingreg":"5-09","lat":"38.783106819"},"geometry":{"type":"Point","coordinates":[-76.91402165199997,38.78310681900007]}},{"type":"Feature","properties":{"school":"9","city":"CLINTON","name":"F T EVANS ELEM SCH - M/P RM","legis":"25","congress":"4","council":"8","long":"-76.8900861","imprt_date":"2016-10-01T00:00:00.000Z","precinctid":"09-03","region":"5","address":"6720 OLD ALEXANDER FERRY RD","route":"09","routingreg":"5-09","lat":"38.784832022"},"geometry":{"type":"Point","coordinates":[-76.89008609999996,38.784832022000046]}},{"type":"Feature","properties":{"school":"1","city":"BELTSVILLE","name":"CALVERTON ELEMENTARY SCHOOL","legis":"21","congress":"4","council":"1","long":"-76.934962409","imprt_date":"2016-10-01T00:00:00.000Z","precinctid":"01-01","region":"1","address":"3400 BELTSVILLE ROAD","route":"03","routingreg":"1-03","lat":"39.055247028"},"geometry":{"type":"Point","coordinates":[-76.93496240899998,39.05524702800005]}},{"type":"Feature","properties":{"school":"1","city":"BELTSVILLE","name":"HIGH POINT HIGH SCHOOL","legis":"21","congress":"4","council":"1","long":"-76.942505169","imprt_date":"2016-10-01T00:00:00.000Z","precinctid":"01-03","region":"1","address":"3601 POWDER MILL ROAD","route":"03","routingreg":"1-03","lat":"39.04271175"},"geometry":{"type":"Point","coordinates":[-76.94250516899996,39.04271175000008]}},{"type":"Feature","properties":{"school":"1","city":"BELTSVILLE","name":"M L KING JR MIDDLE SCHOOL","legis":"21","congress":"5","council":"1","long":"-76.909389604","imprt_date":"2016-10-01T00:00:00.000Z","precinctid":"01-04","region":"1","address":"4545 AMMENDALE ROAD","route":"02","routingreg":"1-02","lat":"39.054923259"},"geometry":{"type":"Point","coordinates":[-76.90938960399995,39.05492325900008]}},{"type":"Feature","properties":{"school":"1","city":"BELTSVILLE","name":"BELTSVILLE ACADEMY","legis":"21","congress":"5","council":"1","long":"-76.918702713","imprt_date":"2016-10-01T00:00:00.000Z","precinctid":"01-05","region":"1","address":"4300 WICOMICO AVENUE","route":"03","routingreg":"1-03","lat":"39.03895285"},"geometry":{"type":"Point","coordinates":[-76.91870271299996,39.038952850000044]}},{"type":"Feature","properties":{"school":"2","city":"NEW CARROLLTON","name":"LAMONT ELEMENTARY SCHOOL","legis":"22","congress":"5","council":"3","long":"-76.883379017","imprt_date":"2016-10-01T00:00:00.000Z","precinctid":"21-16","region":"2","address":"7101 GOOD LUCK ROAD","route":"05","routingreg":"2-05","lat":"38.974196889"},"geometry":{"type":"Point","coordinates":[-76.88337901699998,38.97419688900004]}},{"type":"Feature","properties":{"school":"2","city":"COLLEGE PARK","name":"UNIV OF MD / STAMP STUDENT UNION BLDG","legis":"21","congress":"5","council":"3","long":"-76.943383485","imprt_date":"2016-10-01T00:00:00.000Z","precinctid":"21-17","region":"1","address":"112 CAMPUS DRIVE","route":"06","routingreg":"1-06","lat":"38.988093189"},"geometry":{"type":"Point","coordinates":[-76.94338348499997,38.98809318900004]}},{"type":"Feature","properties":{"school":"3","city":"HYATTSVILLE","name":"COLLEGE PARK ACADEMY - GYM","legis":"22","congress":"5","council":"3","long":"-76.953918718","imprt_date":"2016-10-01T00:00:00.000Z","precinctid":"21-19","region":"1","address":"7501 ADELPHI ROAD","route":"06","routingreg":"1-06","lat":"38.983168208"},"geometry":{"type":"Point","coordinates":[-76.95391871799995,38.98316820800005]}},{"type":"Feature","properties":{"school":"1","city":"LAUREL","name":"DEERFIELD RUN ELEM SCHOOL - GYM","legis":"23A","congress":"4","council":"1","long":"-76.846769871","imprt_date":"2016-10-01T00:00:00.000Z","precinctid":"10-08","region":"2","address":"13000 LAUREL-BOWIE ROAD","route":"01","routingreg":"2-01","lat":"39.071037177"},"geometry":{"type":"Point","coordinates":[-76.84676987099994,39.07103717700005]}},{"type":"Feature","properties":{"school":"3","city":"ADELPHI","name":"MARY HARRIS MOTHER JONES ELEM SCHOOL","legis":"21","congress":"4","council":"2","long":"-76.965503777","imprt_date":"2016-10-01T00:00:00.000Z","precinctid":"17-09","region":"1","address":"2405 TECUMSEH STREET","route":"04","routingreg":"1-04","lat":"39.000311062"},"geometry":{"type":"Point","coordinates":[-76.96550377699998,39.00031106200004]}},{"type":"Feature","properties":{"school":"3","city":"HYATTSVILLE","name":"LEWISDALE ELEMENTARY SCHOOL","legis":"47B","congress":"4","council":"2","long":"-76.968281048","imprt_date":"2016-10-01T00:00:00.000Z","precinctid":"17-10","region":"1","address":"2400 BANNING PLACE","route":"08","routingreg":"1-08","lat":"38.974817495"},"geometry":{"type":"Point","coordinates":[-76.96828104799994,38.974817495000025]}},{"type":"Feature","properties":{"school":"3","city":"HYATTSVILLE","name":"RIDGECREST ELEMENTARY SCHOOL","legis":"47A","congress":"4","council":"2","long":"-76.98897974","imprt_date":"2016-10-01T00:00:00.000Z","precinctid":"17-11","region":"1","address":"6120 RIGGS ROAD","route":"09","routingreg":"1-09","lat":"38.96615405"},"geometry":{"type":"Point","coordinates":[-76.98897973999993,38.96615405000006]}},{"type":"Feature","properties":{"school":"3","city":"ADELPHI","name":"ADELPHI ELEMENTARY SCHOOL","legis":"47B","congress":"4","council":"2","long":"-76.974089674","imprt_date":"2016-10-01T00:00:00.000Z","precinctid":"17-12","region":"1","address":"8820 RIGGS ROAD","route":"04","routingreg":"1-04","lat":"39.000404115"},"geometry":{"type":"Point","coordinates":[-76.97408967399997,39.00040411500004]}},{"type":"Feature","properties":{"school":"2","city":"COLLEGE PARK","name":"PAINT BRANCH ELEM SCH","legis":"21","congress":"5","council":"3","long":"-76.926260494","imprt_date":"2016-10-01T00:00:00.000Z","precinctid":"21-01","region":"1","address":"5101 PIERCE AVENUE","route":"06","routingreg":"1-06","lat":"38.98680798"},"geometry":{"type":"Point","coordinates":[-76.92626049399996,38.98680798000004]}},{"type":"Feature","properties":{"school":"9","city":"ACCOKEEK","name":"ACCOKEEK ACADEMY","legis":"27A","congress":"5","council":"9","long":"-76.979221448","imprt_date":"2016-10-01T00:00:00.000Z","precinctid":"05-01","region":"5","address":"14400 BERRY ROAD","route":"08","routingreg":"5-08","lat":"38.687978989"},"geometry":{"type":"Point","coordinates":[-76.97922144799998,38.687978989000044]}},{"type":"Feature","properties":{"school":"8","city":"FORT WASHINGTON","name":"HARMONY HALL REGIONAL CENTER","legis":"26","congress":"5","council":"8","long":"-77.000673405","imprt_date":"2016-10-01T00:00:00.000Z","precinctid":"05-02","region":"5","address":"10701 LIVINGSTON ROAD","route":"06","routingreg":"5-06","lat":"38.743852273"},"geometry":{"type":"Point","coordinates":[-77.00067340499999,38.74385227300007]}},{"type":"Feature","properties":{"school":"8","city":"FORT WASHINGTON","name":"FRIENDLY HIGH SCHOOL - MPR/CAF","legis":"26","congress":"5","council":"9","long":"-76.968709809","imprt_date":"2016-10-01T00:00:00.000Z","precinctid":"05-03","region":"5","address":"10000 ALLENTOWN ROAD","route":"07","routingreg":"5-07","lat":"38.752101922"},"geometry":{"type":"Point","coordinates":[-76.96870980899996,38.752101922000065]}},{"type":"Feature","properties":{"school":"9","city":"FORT WASHINGTON","name":"FRIENDLY HIGH SCHOOL - RM 113","legis":"26","congress":"5","council":"9","long":"-76.968709809","imprt_date":"2016-10-01T00:00:00.000Z","precinctid":"05-04","region":"5","address":"10000 ALLENTOWN ROAD","route":"07","routingreg":"5-07","lat":"38.752101922"},"geometry":{"type":"Point","coordinates":[-76.96870980899996,38.752101922000065]}},{"type":"Feature","properties":{"school":"9","city":"FORT WASHINGTON","name":"POTOMAC LANDING ELEM SCH","legis":"26","congress":"5","council":"8","long":"-77.004097098","imprt_date":"2016-10-01T00:00:00.000Z","precinctid":"05-05","region":"5","address":"12500 FORT WASHINGTON RD","route":"07","routingreg":"5-07","lat":"38.7183267"},"geometry":{"type":"Point","coordinates":[-77.00409709799999,38.718326700000034]}},{"type":"Feature","properties":{"school":"8","city":"FORT WASHINGTON","name":"BREATH OF LIFE SDA CHURCH","legis":"26","congress":"5","council":"8","long":"-77.000026194","imprt_date":"2016-10-01T00:00:00.000Z","precinctid":"05-07","region":"5","address":"11310 FORT WASHINGTON ROAD","route":"06","routingreg":"5-06","lat":"38.739510674"},"geometry":{"type":"Point","coordinates":[-77.00002619399999,38.73951067400003]}},{"type":"Feature","properties":{"school":"9","city":"ACCOKEEK","name":"ACCOKEEK  PUBLIC LIBRARY","legis":"26","congress":"5","council":"9","long":"-77.006232994","imprt_date":"2016-10-01T00:00:00.000Z","precinctid":"05-08","region":"5","address":"15773 LIVINGSTON ROAD","route":"08","routingreg":"5-08","lat":"38.671037801"},"geometry":{"type":"Point","coordinates":[-77.00623299399996,38.67103780100007]}},{"type":"Feature","properties":{"school":"9","city":"FORT WASHINGTON","name":"FT WASH FOREST ELEM SCH - MEDIA CTR","legis":"26","congress":"5","council":"9","long":"-76.985311002","imprt_date":"2016-10-01T00:00:00.000Z","precinctid":"05-09","region":"5","address":"1300 FILLMORE ROAD","route":"08","routingreg":"5-08","lat":"38.709094936"},"geometry":{"type":"Point","coordinates":[-76.98531100199995,38.70909493600004]}},{"type":"Feature","properties":{"school":"9","city":"FORT WASHINGTON","name":"FT WASH FOREST ELEM SCH - M/P RM","legis":"26","congress":"5","council":"9","long":"-76.985311002","imprt_date":"2016-10-01T00:00:00.000Z","precinctid":"05-10","region":"5","address":"1300 FILLMORE ROAD","route":"08","routingreg":"5-08","lat":"38.709094936"},"geometry":{"type":"Point","coordinates":[-76.98531100199995,38.70909493600004]}},{"type":"Feature","properties":{"school":"8","city":"FORT WASHINGTON","name":"POTOMAC KNOLLS COMMUNITY CTR","legis":"26","congress":"5","council":"8","long":"-76.989445297","imprt_date":"2016-10-01T00:00:00.000Z","precinctid":"05-11","region":"5","address":"1101 ARAGONA BOULEVARD","route":"07","routingreg":"5-07","lat":"38.73416242"},"geometry":{"type":"Point","coordinates":[-76.98944529699997,38.734162420000075]}},{"type":"Feature","properties":{"school":"7","city":"FORESTVILLE","name":"BISHOP MCNAMARA HIGH SCHOOL - CAF","legis":"25","congress":"4","council":"6","long":"-76.888513989","imprt_date":"2016-10-01T00:00:00.000Z","precinctid":"06-01","region":"3","address":"6800 A  MARLBORO PIKE","route":"08","routingreg":"3-08","lat":"38.852206453"},"geometry":{"type":"Point","coordinates":[-76.88851398899999,38.852206453000065]}},{"type":"Feature","properties":{"school":"8","city":"TEMPLE HILLS","name":"THURGOOD MARSHALL MIDDLE SCH - GYM","legis":"26","congress":"4","council":"8","long":"-76.921613536","imprt_date":"2016-10-01T00:00:00.000Z","precinctid":"06-02","region":"5","address":"4909 BRINKLEY ROAD","route":"03","routingreg":"5-03","lat":"38.801478901"},"geometry":{"type":"Point","coordinates":[-76.92161353599994,38.80147890100005]}},{"type":"Feature","properties":{"school":"7","city":"CAPITOL HEIGHTS","name":"JOHN EAGER HOWARD ELEM SCH","legis":"24","congress":"4","council":"7","long":"-76.930616381","imprt_date":"2016-10-01T00:00:00.000Z","precinctid":"06-03","region":"3","address":"4400 SHELL STREET","route":"07","routingreg":"3-07","lat":"38.869145421"},"geometry":{"type":"Point","coordinates":[-76.93061638099994,38.86914542100004]}},{"type":"Feature","properties":{"school":"7","city":"SUITLAND","name":"WILLIAM BEANES ELEM SCH","legis":"25","congress":"4","council":"7","long":"-76.918903697","imprt_date":"2016-10-01T00:00:00.000Z","precinctid":"06-04","region":"3","address":"5108 DIANNA DRIVE","route":"09","routingreg":"3-09","lat":"38.840447231"},"geometry":{"type":"Point","coordinates":[-76.91890369699996,38.84044723100004]}},{"type":"Feature","properties":{"school":"4","city":"RIVERDALE","name":"BEACON HEIGHTS ELEM SCH","legis":"22","congress":"5","council":"3","long":"-76.898369315","imprt_date":"2016-10-01T00:00:00.000Z","precinctid":"02-06","region":"2","address":"6929 FURMAN PARKWAY","route":"06","routingreg":"2-06","lat":"38.958132392"},"geometry":{"type":"Point","coordinates":[-76.89836931499997,38.95813239200004]}},{"type":"Feature","properties":{"school":"4","city":"CHEVERLY","name":"JUDITH P HOYER EARLY CHILD CTR - GYM","legis":"47A","congress":"4","council":"5","long":"-76.916372654","imprt_date":"2016-10-01T00:00:00.000Z","precinctid":"02-07","region":"3","address":"2300 BELLEVIEW AVENUE","route":"03","routingreg":"3-03","lat":"38.919282747"},"geometry":{"type":"Point","coordinates":[-76.91637265399999,38.91928274700007]}},{"type":"Feature","properties":{"school":"4","city":"LANDOVER HILLS","name":"COOPER LANE ELEM SCH - MPR","legis":"47A","congress":"4","council":"5","long":"-76.900162308","imprt_date":"2016-10-01T00:00:00.000Z","precinctid":"02-09","region":"2","address":"3817 COOPER LANE","route":"08","routingreg":"2-08","lat":"38.939560272"},"geometry":{"type":"Point","coordinates":[-76.90016230799995,38.93956027200005]}},{"type":"Feature","properties":{"school":"5","city":"UPPER MARLBORO","name":"EVANGEL CATHEDRAL","legis":"23B","congress":"4","council":"6","long":"-76.767481331","imprt_date":"2016-10-01T00:00:00.000Z","precinctid":"07-11","region":"4","address":"13901 CENTRAL AVENUE","route":"05","routingreg":"4-05","lat":"38.896994717"},"geometry":{"type":"Point","coordinates":[-76.76748133099994,38.89699471700004]}},{"type":"Feature","properties":{"school":"9","city":"CLINTON","name":"WALDON WOODS ELEM SCH","legis":"27A","congress":"5","council":"9","long":"-76.900318633","imprt_date":"2016-10-01T00:00:00.000Z","precinctid":"09-07","region":"5","address":"10301 THRIFT ROAD","route":"10","routingreg":"5-10","lat":"38.748878441"},"geometry":{"type":"Point","coordinates":[-76.90031863299998,38.748878441000045]}},{"type":"Feature","properties":{"school":"9","city":"CLINTON","name":"CLINTON UNITED METHODIST CHURCH","legis":"27A","congress":"5","council":"9","long":"-76.895675431","imprt_date":"2016-10-01T00:00:00.000Z","precinctid":"09-08","region":"5","address":"10700 BRANDYWINE RD","route":"10","routingreg":"5-10","lat":"38.743242584"},"geometry":{"type":"Point","coordinates":[-76.89567543099997,38.74324258400003]}},{"type":"Feature","properties":{"school":"9","city":"UPPER MARLBORO","name":"MELWOOD ELEMENTARY SCHOOL","legis":"25","congress":"5","council":"9","long":"-76.83805157","imprt_date":"2016-10-01T00:00:00.000Z","precinctid":"09-09","region":"5","address":"7100 WOODYARD ROAD","route":"11","routingreg":"5-11","lat":"38.790744742"},"geometry":{"type":"Point","coordinates":[-76.83805156999995,38.79074474200007]}},{"type":"Feature","properties":{"school":"9","city":"CLINTON","name":"CLINTON GROVE ELEM SCH","legis":"25","congress":"5","council":"9","long":"-76.922017829","imprt_date":"2016-10-01T00:00:00.000Z","precinctid":"09-10","region":"5","address":"9420 TEMPLE HILL ROAD","route":"10","routingreg":"5-10","lat":"38.760934154"},"geometry":{"type":"Point","coordinates":[-76.92201782899997,38.76093415400004]}},{"type":"Feature","properties":{"school":"9","city":"UPPER MARLBORO","name":"EXCELLENCE CHRISTIAN SCHOOL","legis":"27B","congress":"5","council":"9","long":"-76.828239768","imprt_date":"2016-10-01T00:00:00.000Z","precinctid":"09-11","region":"5","address":"9010 FRANK TIPPETT ROAD","route":"09","routingreg":"5-09","lat":"38.765972576"},"geometry":{"type":"Point","coordinates":[-76.82823976799995,38.765972576000024]}},{"type":"Feature","properties":{"school":"1","city":"LAUREL","name":"DWIGHT D EISENHOWER MIDDLE SCH","legis":"21","congress":"4","council":"1","long":"-76.85411251","imprt_date":"2016-10-01T00:00:00.000Z","precinctid":"10-01","region":"2","address":"13725 BRIARWOOD DRIVE","route":"01","routingreg":"2-01","lat":"39.079505641"},"geometry":{"type":"Point","coordinates":[-76.85411250999994,39.079505641000026]}},{"type":"Feature","properties":{"school":"1","city":"LAUREL","name":"LAUREL BOYS AND GIRLS CLUB","legis":"21","congress":"4","council":"1","long":"-76.855625102","imprt_date":"2016-10-01T00:00:00.000Z","precinctid":"10-02","region":"1","address":"701 MONTGOMERY STREET","route":"01","routingreg":"1-01","lat":"39.107224415"},"geometry":{"type":"Point","coordinates":[-76.85562510199998,39.107224415000076]}},{"type":"Feature","properties":{"school":"4","city":"GLENN DALE","name":"GLENN DALE COMMUNITY CENTER","legis":"24","congress":"4","council":"5","long":"-76.801120862","imprt_date":"2016-10-01T00:00:00.000Z","precinctid":"20-17","region":"0","address":"11901 GLENN DALE BOULEVARD","route":null,"routingreg":null,"lat":"38.974277672"},"geometry":{"type":"Point","coordinates":[-76.80112086199995,38.97427767200003]}},{"type":"Feature","properties":{"school":"4","city":"SEAT PLEASANT","name":"SEAT PLEASANT ACTIVITY CENTER","legis":"24","congress":"4","council":"5","long":"-76.907860579","imprt_date":"2016-10-01T00:00:00.000Z","precinctid":"18-14","region":"0","address":"5720 ADDISON ROAD","route":null,"routingreg":null,"lat":"38.896623489"},"geometry":{"type":"Point","coordinates":[-76.90786057899999,38.896623489000035]}},{"type":"Feature","properties":{"school":"6","city":"SEAT PLEASANT","name":"SEAT PLEASANT ELEM SCH","legis":"24","congress":"4","council":"5","long":"-76.90727127","imprt_date":"2016-10-01T00:00:00.000Z","precinctid":"18-15","region":"0","address":"6411 G STREET","route":null,"routingreg":null,"lat":"38.897097762"},"geometry":{"type":"Point","coordinates":[-76.90727126999997,38.897097762000044]}},{"type":"Feature","properties":{"school":"6","city":"SEAT PLEASANT","name":"SAINT MARGARET CATHOLIC SCH","legis":"24","congress":"4","council":"6","long":"-76.896292358","imprt_date":"2016-10-01T00:00:00.000Z","precinctid":"18-16","region":"0","address":"408 ADDISON ROAD","route":null,"routingreg":null,"lat":"38.88280131"},"geometry":{"type":"Point","coordinates":[-76.89629235799998,38.88280131000005]}},{"type":"Feature","properties":{"school":"4","city":null,"name":"COMMUNITY BIBLE BAPTIST CHURCH","legis":"22","congress":"4","council":"3","long":"-76.885818544","imprt_date":"2016-10-01T00:00:00.000Z","precinctid":"20-14","region":"0","address":"7309 RIVERDALE ROAD","route":null,"routingreg":null,"lat":"38.961515812"},"geometry":{"type":"Point","coordinates":[-76.88581854399996,38.96151581200007]}},{"type":"Feature","properties":{"school":"4","city":"NEW CARROLLTON","name":"UNITED BAPTIST CHURCH","legis":"22","congress":"4","council":"3","long":"-76.877249815","imprt_date":"2016-10-01T00:00:00.000Z","precinctid":"20-15","region":"0","address":"7701 RIVERDALE ROAD","route":null,"routingreg":null,"lat":"38.959150898"},"geometry":{"type":"Point","coordinates":[-76.87724981499997,38.959150898000075]}},{"type":"Feature","properties":{"school":"4","city":"LANHAM","name":"LINCOLN VISTA COMMUNITY BLDG","legis":"22","congress":"4","council":"5","long":"-76.821946592","imprt_date":"2016-10-01T00:00:00.000Z","precinctid":"20-16","region":"0","address":"9800 RIDGE STREET","route":null,"routingreg":null,"lat":"38.972258344"},"geometry":{"type":"Point","coordinates":[-76.82194659199996,38.97225834400007]}},{"type":"Feature","properties":{"school":"4","city":"LANHAM","name":"ST MATHIAS THE APOSTLE CATHOLIC CHURCH - FRIENDSHIP HALL","legis":"24","congress":"4","council":"3","long":"-76.840524596","imprt_date":"2016-10-01T00:00:00.000Z","precinctid":"20-19","region":"0","address":"9473 ANNAPOLIS ROAD","route":null,"routingreg":null,"lat":"38.964195777"},"geometry":{"type":"Point","coordinates":[-76.84052459599997,38.96419577700004]}},{"type":"Feature","properties":{"school":"3","city":"HYATTSVILLE","name":"CESAR CHAVEZ ELEM SCH","legis":"47A","congress":"4","council":"2","long":"-76.981335302","imprt_date":"2016-10-01T00:00:00.000Z","precinctid":"17-06","region":"1","address":"6609 RIGGS ROAD","route":"09","routingreg":"1-09","lat":"38.969345063"},"geometry":{"type":"Point","coordinates":[-76.98133530199993,38.96934506300005]}},{"type":"Feature","properties":{"school":"3","city":"HYATTSVILLE","name":"ROLLINGCREST CHILLUM COMM CTR","legis":"47A","congress":"4","council":"2","long":"-76.985044944","imprt_date":"2016-10-01T00:00:00.000Z","precinctid":"17-07","region":"1","address":"6120 SARGENT ROAD","route":"09","routingreg":"1-09","lat":"38.96480249"},"geometry":{"type":"Point","coordinates":[-76.98504494399998,38.96480249000007]}},{"type":"Feature","properties":{"school":"3","city":"HYATTSVILLE","name":"HYATTSVILLE PUBLIC LIBRARY","legis":"47B","congress":"4","council":"2","long":"-76.949544851","imprt_date":"2016-10-01T00:00:00.000Z","precinctid":"17-08","region":"1","address":"6530 ADELPHI ROAD","route":"08","routingreg":"1-08","lat":"38.968905535"},"geometry":{"type":"Point","coordinates":[-76.94954485099998,38.96890553500003]}},{"type":"Feature","properties":{"school":"6","city":"CAPITOL HEIGHTS","name":"CEDAR HEIGHTS COMMUNITY CENTER","legis":"47A","congress":"4","council":"5","long":"-76.903610852","imprt_date":"2016-10-01T00:00:00.000Z","precinctid":"13-25","region":"0","address":"1200 GLEN WILLOW DRIVE","route":null,"routingreg":null,"lat":"38.905569542"},"geometry":{"type":"Point","coordinates":[-76.90361085199999,38.90556954200008]}},{"type":"Feature","properties":{"school":"1","city":"BOWIE","name":"BOWIE STATE UNIVERSITY-MCKELDIN GYM","legis":"23B","congress":"5","council":"4","long":"-76.759246563","imprt_date":"2016-10-01T00:00:00.000Z","precinctid":"14-11","region":"0","address":"14000 JERICHO PARK ROAD","route":null,"routingreg":null,"lat":"39.02060456"},"geometry":{"type":"Point","coordinates":[-76.75924656299998,39.02060456000004]}},{"type":"Feature","properties":{"school":"3","city":"HYATTSVILLE","name":"LANGLEY PARK MCCORMICK ELEM SCH","legis":"47B","congress":"4","council":"2","long":"-76.980670523","imprt_date":"2016-10-01T00:00:00.000Z","precinctid":"17-03","region":"0","address":"8201 15TH AVENUE","route":null,"routingreg":null,"lat":"38.993962668"},"geometry":{"type":"Point","coordinates":[-76.98067052299996,38.99396266800005]}},{"type":"Feature","properties":{"school":"8","city":"OXON HILL","name":"POTOMAC HIGH SCHOOL - GYM","legis":"26","congress":"4","council":"7","long":"-76.97729966","imprt_date":"2016-10-01T00:00:00.000Z","precinctid":"12-06","region":"5","address":"5211 BOYDELL AVENUE","route":"02","routingreg":"5-02","lat":"38.821062748"},"geometry":{"type":"Point","coordinates":[-76.97729965999997,38.82106274800003]}},{"type":"Feature","properties":{"school":"8","city":"TEMPLE HILLS","name":"SAMUEL CHASE ELEM SCH","legis":"25","congress":"4","council":"8","long":"-76.951601152","imprt_date":"2016-10-01T00:00:00.000Z","precinctid":"12-07","region":"5","address":"5700 FISHER ROAD","route":"03","routingreg":"5-03","lat":"38.809720716"},"geometry":{"type":"Point","coordinates":[-76.95160115199997,38.80972071600007]}},{"type":"Feature","properties":{"school":"8","city":"FORT WASHINGTON","name":"APPLE GROVE ELEMENTARY SCHOOL","legis":"26","congress":"4","council":"8","long":"-76.962659386","imprt_date":"2016-10-01T00:00:00.000Z","precinctid":"12-08","region":"5","address":"7400 BELLEFIELD AVENUE","route":"05","routingreg":"5-05","lat":"38.78926091"},"geometry":{"type":"Point","coordinates":[-76.96265938599998,38.78926091000005]}},{"type":"Feature","properties":{"school":"8","city":"OXON HILL","name":"GLASSMANOR ELEMENTARY SCHOOL","legis":"26","congress":"4","council":"8","long":"-76.990236218","imprt_date":"2016-10-01T00:00:00.000Z","precinctid":"12-09","region":"5","address":"1011 MARCY AVENUE","route":"02","routingreg":"5-02","lat":"38.81711773"},"geometry":{"type":"Point","coordinates":[-76.99023621799995,38.817117730000064]}},{"type":"Feature","properties":{"school":"8","city":"FORT WASHINGTON","name":"OXON HILL MIDDLE SCHOOL","legis":"26","congress":"4","council":"8","long":"-77.014123266","imprt_date":"2016-10-01T00:00:00.000Z","precinctid":"12-10","region":"5","address":"9570 FORT FOOTE ROAD","route":"06","routingreg":"5-06","lat":"38.761571321"},"geometry":{"type":"Point","coordinates":[-77.01412326599996,38.761571321000076]}},{"type":"Feature","properties":{"school":"6","city":"SEAT PLEASANT","name":"CENTRAL HIGH SCHOOL","legis":"25","congress":"4","council":"6","long":"-76.891105921","imprt_date":"2016-10-01T00:00:00.000Z","precinctid":"18-06","region":"3","address":"200 CABIN BRANCH ROAD","route":"06","routingreg":"3-06","lat":"38.882343081"},"geometry":{"type":"Point","coordinates":[-76.89110592099996,38.882343081000045]}},{"type":"Feature","properties":{"school":"5","city":"GLENN DALE","name":"GLENN DALE VOL FIRE DEPT","legis":"24","congress":"5","council":"4","long":"-76.799311232","imprt_date":"2016-10-01T00:00:00.000Z","precinctid":"14-07","region":"2","address":"11900 GLENN DALE BOULEVARD","route":"03","routingreg":"2-03","lat":"38.975356827"},"geometry":{"type":"Point","coordinates":[-76.79931123199998,38.97535682700004]}},{"type":"Feature","properties":{"school":"5","city":"GLENN DALE","name":"REID TEMPLE AME CHURCH","legis":"24","congress":"4","council":"6","long":"-76.808762973","imprt_date":"2016-10-01T00:00:00.000Z","precinctid":"07-22","region":"0","address":"11400 GLENN DALE BOULEVARD","route":null,"routingreg":null,"lat":"38.984714872"},"geometry":{"type":"Point","coordinates":[-76.80876297299994,38.98471487200004]}},{"type":"Feature","properties":{"school":"6","city":"SEAT PLEASANT","name":"SEAT PLEASANT ACTIVITY CENTER","legis":"24","congress":"4","council":"5","long":"-76.907860579","imprt_date":"2016-10-01T00:00:00.000Z","precinctid":"18-13","region":"0","address":"5720 ADDISON ROAD","route":null,"routingreg":null,"lat":"38.896623489"},"geometry":{"type":"Point","coordinates":[-76.90786057899999,38.896623489000035]}},{"type":"Feature","properties":{"school":"8","city":"HILLCREST HEIGHTS","name":"MAYA ANGELOU FRENCH IMMERSION","legis":"26","congress":"4","council":"7","long":"-76.968375839","imprt_date":"2016-10-01T00:00:00.000Z","precinctid":"12-13","region":"3","address":"2000 CALLAWAY STREET","route":"10","routingreg":"3-10","lat":"38.834116804"},"geometry":{"type":"Point","coordinates":[-76.96837583899998,38.834116804000075]}},{"type":"Feature","properties":{"school":"1","city":"LAUREL","name":"LAUREL HIGH SCHOOL","legis":"21","congress":"4","council":"1","long":"-76.867831462","imprt_date":"2016-10-01T00:00:00.000Z","precinctid":"10-04","region":"1","address":"8000 CHERRY LANE","route":"01","routingreg":"1-01","lat":"39.094367169"},"geometry":{"type":"Point","coordinates":[-76.86783146199997,39.094367169000066]}},{"type":"Feature","properties":{"school":"8","city":"OXON HILL","name":"OXON HILL ELEMENTARY SCHOOL","legis":"26","congress":"4","council":"8","long":"-76.993099065","imprt_date":"2016-10-01T00:00:00.000Z","precinctid":"12-11","region":"5","address":"7701 LIVINGSTON ROAD","route":"04","routingreg":"5-04","lat":"38.784092129"},"geometry":{"type":"Point","coordinates":[-76.99309906499997,38.784092129000044]}},{"type":"Feature","properties":{"school":"8","city":"OXON HILL","name":"OXON HILL PUBLIC LIBRARY","legis":"26","congress":"4","council":"8","long":"-76.983821481","imprt_date":"2016-10-01T00:00:00.000Z","precinctid":"12-12","region":"5","address":"6200 OXON HILL ROAD","route":"04","routingreg":"5-04","lat":"38.803501681"},"geometry":{"type":"Point","coordinates":[-76.98382148099995,38.80350168100006]}},{"type":"Feature","properties":{"school":"8","city":"TEMPLE HILLS","name":"CROSSLAND HIGH SCHOOL","legis":"26","congress":"4","council":"8","long":"-76.929733641","imprt_date":"2016-10-01T00:00:00.000Z","precinctid":"12-15","region":"5","address":"6901 TEMPLE HILL RD","route":"05","routingreg":"5-05","lat":"38.794405172"},"geometry":{"type":"Point","coordinates":[-76.92973364099998,38.79440517200004]}},{"type":"Feature","properties":{"school":"6","city":"LANDOVER","name":"KENMOOR MIDDLE SCHOOL","legis":"22","congress":"4","council":"5","long":"-76.867153629","imprt_date":"2016-10-01T00:00:00.000Z","precinctid":"13-01","region":"3","address":"2500 KENMOOR DRIVE","route":"04","routingreg":"3-04","lat":"38.925148597"},"geometry":{"type":"Point","coordinates":[-76.86715362899997,38.92514859700003]}},{"type":"Feature","properties":{"school":"4","city":"LANDOVER","name":"COLUMBIA PARK - KENTLAND COMM CTR","legis":"47A","congress":"4","council":"5","long":"-76.894131297","imprt_date":"2016-10-01T00:00:00.000Z","precinctid":"13-02","region":"3","address":"2411 PINEBROOK AVENUE","route":"01","routingreg":"3-01","lat":"38.923623841"},"geometry":{"type":"Point","coordinates":[-76.89413129699994,38.92362384100005]}},{"type":"Feature","properties":{"school":"4","city":"GLENARDEN","name":"J R COUSINS JR MEMORIAL CTR","legis":"24","congress":"4","council":"5","long":"-76.865400081","imprt_date":"2016-10-01T00:00:00.000Z","precinctid":"13-03","region":"2","address":"8600 GLENARDEN PARKWAY","route":"07","routingreg":"2-07","lat":"38.932709689"},"geometry":{"type":"Point","coordinates":[-76.86540008099996,38.932709689000035]}},{"type":"Feature","properties":{"school":"6","city":"UPPER MARLBORO","name":"KETTERING ELEMENTARY SCHOOL","legis":"25","congress":"4","council":"6","long":"-76.814338026","imprt_date":"2016-10-01T00:00:00.000Z","precinctid":"13-04","region":"4","address":"11000 LAYTON STREET","route":"08","routingreg":"4-08","lat":"38.891173192"},"geometry":{"type":"Point","coordinates":[-76.81433802599997,38.89117319200005]}},{"type":"Feature","properties":{"school":"6","city":"UPPER MARLBORO","name":"CHARLES H. FLOWERS  HIGH SCH - MPR","legis":"24","congress":"4","council":"5","long":"-76.836127364","imprt_date":"2016-10-01T00:00:00.000Z","precinctid":"13-05","region":"3","address":"10001 ARDWICK ARDMORE ROAD","route":"02","routingreg":"3-02","lat":"38.931936425"},"geometry":{"type":"Point","coordinates":[-76.83612736399994,38.93193642500006]}},{"type":"Feature","properties":{"school":"6","city":"UPPER MARLBORO","name":"LARGO HIGH SCHOOL","legis":"25","congress":"4","council":"6","long":"-76.820377311","imprt_date":"2016-10-01T00:00:00.000Z","precinctid":"13-06","region":"4","address":"505 LARGO ROAD","route":"08","routingreg":"4-08","lat":"38.886384669"},"geometry":{"type":"Point","coordinates":[-76.82037731099996,38.88638466900005]}},{"type":"Feature","properties":{"school":"6","city":"LANDOVER","name":"WILLIAM PACA ELEM SCH - MPR","legis":"24","congress":"4","council":"5","long":"-76.872863484","imprt_date":"2016-10-01T00:00:00.000Z","precinctid":"13-07","region":"3","address":"7801 SHERIFF ROAD","route":"04","routingreg":"3-04","lat":"38.911704858"},"geometry":{"type":"Point","coordinates":[-76.87286348399994,38.911704858000064]}},{"type":"Feature","properties":{"school":"4","city":"LANDOVER","name":"EXCEL ACADEMY - MPR","legis":"22","congress":"4","council":"5","long":"-76.869014093","imprt_date":"2016-10-01T00:00:00.000Z","precinctid":"13-08","region":"3","address":"7910 SCOTT ROAD","route":"02","routingreg":"3-02","lat":"38.921437487"},"geometry":{"type":"Point","coordinates":[-76.86901409299998,38.92143748700005]}},{"type":"Feature","properties":{"school":"6","city":"UPPER MALRBORO","name":"ARROWHEAD ELEMENTARY SCHOOL  GYM","legis":"25","congress":"4","council":"6","long":"-76.842885107","imprt_date":"2016-10-01T00:00:00.000Z","precinctid":"13-09","region":"4","address":"2300 SANSBURY ROAD","route":"07","routingreg":"4-07","lat":"38.856810519"},"geometry":{"type":"Point","coordinates":[-76.84288510699997,38.85681051900008]}},{"type":"Feature","properties":{"school":"2","city":"GREENBELT","name":"ELEANOR ROOSEVELT HIGH SCHOOL","legis":"22","congress":"5","council":"4","long":"-76.86951308","imprt_date":"2016-10-01T00:00:00.000Z","precinctid":"21-13","region":"2","address":"7601 HANOVER PARKWAY","route":"02","routingreg":"2-02","lat":"38.99458065"},"geometry":{"type":"Point","coordinates":[-76.86951307999993,38.994580650000046]}},{"type":"Feature","properties":{"school":"3","city":"TAKOMA PARK","name":"CAROLE HIGHLANDS ELEM SCH","legis":"47B","congress":"4","council":"2","long":"-76.983497327","imprt_date":"2016-10-01T00:00:00.000Z","precinctid":"17-05","region":"1","address":"1610 HANNON STREET","route":"09","routingreg":"1-09","lat":"38.983753349"},"geometry":{"type":"Point","coordinates":[-76.98349732699995,38.98375334900004]}},{"type":"Feature","properties":{"school":"8","city":"FORT WASHINGTON","name":"TAYAC ELEM SCH - M/P RM","legis":"26","congress":"5","council":"8","long":"-76.950734043","imprt_date":"2016-10-01T00:00:00.000Z","precinctid":"05-06","region":"5","address":"8600 ALLENTOWN ROAD","route":"05","routingreg":"5-05","lat":"38.770982394"},"geometry":{"type":"Point","coordinates":[-76.95073404299995,38.77098239400004]}},{"type":"Feature","properties":{"school":"2","city":"LANHAM","name":"GRACE PRESBYTERIAN CHURCH","legis":"22","congress":"4","council":"3","long":"-76.864982066","imprt_date":"2016-10-01T00:00:00.000Z","precinctid":"20-13","region":"2","address":"5924 PRINCESS GARDEN PARKWAY","route":"05","routingreg":"2-05","lat":"38.963114501"},"geometry":{"type":"Point","coordinates":[-76.86498206599998,38.963114501000064]}},{"type":"Feature","properties":{"school":"8","city":"FORT WASHINGTON","name":"INDIAN QUEEN ELEM SCH","legis":"26","congress":"4","council":"8","long":"-77.015663339","imprt_date":"2016-10-01T00:00:00.000Z","precinctid":"12-14","region":"5","address":"9551 FORT FOOTE ROAD","route":"06","routingreg":"5-06","lat":"38.757861443"},"geometry":{"type":"Point","coordinates":[-77.01566333899996,38.757861443000024]}},{"type":"Feature","properties":{"school":"6","city":"UPPER MARLBORO","name":"PHYLLIS E WILLIAMS ELEM SCH","legis":"24","congress":"4","council":"6","long":"-76.839568692","imprt_date":"2016-10-01T00:00:00.000Z","precinctid":"13-10","region":"4","address":"9601 PRINCE PLACE","route":"07","routingreg":"4-07","lat":"38.889284017"},"geometry":{"type":"Point","coordinates":[-76.83956869199994,38.88928401700008]}},{"type":"Feature","properties":{"school":"2","city":"LANHAM","name":"ST MATHIAS THE APOSTLE CATHOLIC CHURCH - FRIENDSHIP HALL","legis":"24","congress":"5","council":"3","long":"-76.840524596","imprt_date":"2016-10-01T00:00:00.000Z","precinctid":"20-21","region":"0","address":"9473 ANNAPOLIS ROAD","route":null,"routingreg":null,"lat":"38.964195777"},"geometry":{"type":"Point","coordinates":[-76.84052459599997,38.96419577700004]}},{"type":"Feature","properties":{"school":"4","city":"LANHAM","name":"LINCOLN VISTA COMMUNITY BLDG","legis":"22","congress":"4","council":"3","long":"-76.821946592","imprt_date":"2016-10-01T00:00:00.000Z","precinctid":"20-20","region":"0","address":"9800 RIDGE STREET","route":null,"routingreg":null,"lat":"38.972258344"},"geometry":{"type":"Point","coordinates":[-76.82194659199996,38.97225834400007]}},{"type":"Feature","properties":{"school":"1","city":"SILVER SPRING","name":"RIDERWOOD RETIREMENT VILLAGE","legis":"21","congress":"4","council":"1","long":"-76.945158569","imprt_date":"2016-10-01T00:00:00.000Z","precinctid":"01-07","region":"0","address":"3140 GRACEFIELD ROAD","route":null,"routingreg":null,"lat":"39.049231563"},"geometry":{"type":"Point","coordinates":[-76.94515856899994,39.049231563000035]}},{"type":"Feature","properties":{"school":"4","city":"GLENARDEN","name":"JUDGE SYLVANIA W. WOODS  ELEM SCH - CAF","legis":"22","congress":"4","council":"5","long":"-76.872443633","imprt_date":"2016-10-01T00:00:00.000Z","precinctid":"20-18","region":"0","address":"3000 CHURCH STREET","route":null,"routingreg":null,"lat":"38.933122387"},"geometry":{"type":"Point","coordinates":[-76.87244363299999,38.933122387000026]}},{"type":"Feature","properties":{"school":"7","city":"CAPITOL HEIGHTS","name":"JOHN H BAYNE ELEM SCH","legis":"25","congress":"4","council":"6","long":"-76.884992817","imprt_date":"2016-10-01T00:00:00.000Z","precinctid":"06-25","region":"0","address":"7010 WALKER MILL ROAD","route":null,"routingreg":null,"lat":"38.872566297"},"geometry":{"type":"Point","coordinates":[-76.88499281699995,38.87256629700005]}},{"type":"Feature","properties":{"school":"6","city":"LANDOVER","name":"COLUMBIA PARK ELEM SCH  CAF","legis":"47A","congress":"4","council":"5","long":"-76.887233842","imprt_date":"2016-10-01T00:00:00.000Z","precinctid":"13-18","region":"0","address":"1901 KENT VILLAGE DRIVE","route":null,"routingreg":null,"lat":"38.916694506"},"geometry":{"type":"Point","coordinates":[-76.88723384199994,38.916694506000056]}},{"type":"Feature","properties":{"school":"4","city":"LANDOVER","name":"EXCEL ACADEMY - MPR","legis":"22","congress":"4","council":"5","long":"-76.869014093","imprt_date":"2016-10-01T00:00:00.000Z","precinctid":"13-19","region":"0","address":"7910 SCOTT ROAD","route":null,"routingreg":null,"lat":"38.921437487"},"geometry":{"type":"Point","coordinates":[-76.86901409299998,38.92143748700005]}},{"type":"Feature","properties":{"school":"4","city":"LANDOVER","name":"FIRST BAPTIST CHURCH MINISTRY CTR","legis":"22","congress":"4","council":"5","long":"-76.858469413","imprt_date":"2016-10-01T00:00:00.000Z","precinctid":"13-20","region":"0","address":"3600 BRIGHTSEAT ROAD","route":null,"routingreg":null,"lat":"38.935255584"},"geometry":{"type":"Point","coordinates":[-76.85846941299997,38.93525558400006]}},{"type":"Feature","properties":{"school":"6","city":"LANHAM","name":"GREATER LIGHTHOUSE CHURCH","legis":"22","congress":"4","council":"5","long":"-76.823296509","imprt_date":"2016-10-01T00:00:00.000Z","precinctid":"13-21","region":"0","address":"5201 BALTIMORE LANE","route":null,"routingreg":null,"lat":"38.960763533"},"geometry":{"type":"Point","coordinates":[-76.82329650899999,38.96076353300003]}},{"type":"Feature","properties":{"school":"4","city":"LANDOVER","name":"EXCEL ACADEMY - MPR","legis":"47A","congress":"4","council":"5","long":"-76.869014093","imprt_date":"2016-10-01T00:00:00.000Z","precinctid":"13-22","region":"0","address":"7910 SCOTT ROAD","route":null,"routingreg":null,"lat":"38.921437487"},"geometry":{"type":"Point","coordinates":[-76.86901409299998,38.92143748700005]}},{"type":"Feature","properties":{"school":"6","city":"MITCHELLVILLE","name":"LAKE ARBOR ELEMENTARY  SCHOOL","legis":"24","congress":"4","council":"6","long":"-76.829375404","imprt_date":"2016-10-01T00:00:00.000Z","precinctid":"13-23","region":"0","address":"10205 LAKE ARBOR WAY","route":null,"routingreg":null,"lat":"38.904016127"},"geometry":{"type":"Point","coordinates":[-76.82937540399996,38.904016127000034]}},{"type":"Feature","properties":{"school":"6","city":"MITCHELLVILLE","name":"LAKE ARBOR COMMUNITY CENTER","legis":"24","congress":"4","council":"6","long":"-76.831291134","imprt_date":"2016-10-01T00:00:00.000Z","precinctid":"13-24","region":"0","address":"10100 LAKE ARBOR WAY","route":null,"routingreg":null,"lat":"38.905259108"},"geometry":{"type":"Point","coordinates":[-76.83129113399997,38.90525910800005]}},{"type":"Feature","properties":{"school":"7","city":"DISTRICT HEIGHTS","name":"DISTRICT HEIGHTS ELEM SCH","legis":"25","congress":"4","council":"6","long":"-76.897107529","imprt_date":"2016-10-01T00:00:00.000Z","precinctid":"06-05","region":"3","address":"2200 COUNTY ROAD","route":"08","routingreg":"3-08","lat":"38.85885795"},"geometry":{"type":"Point","coordinates":[-76.89710752899998,38.85885795000007]}},{"type":"Feature","properties":{"school":"7","city":"FORESTVILLE","name":"SUITLAND HIGH SCHOOL","legis":"24","congress":"4","council":"7","long":"-76.918054362","imprt_date":"2016-10-01T00:00:00.000Z","precinctid":"06-06","region":"3","address":"5200 SILVER HILL ROAD","route":"07","routingreg":"3-07","lat":"38.854145933"},"geometry":{"type":"Point","coordinates":[-76.91805436199996,38.85414593300004]}},{"type":"Feature","properties":{"school":"7","city":"SUITLAND","name":"SKYLINE ELEMENTARY SCHOOL","legis":"26","congress":"4","council":"8","long":"-76.896147923","imprt_date":"2016-10-01T00:00:00.000Z","precinctid":"06-07","region":"5","address":"6311 RANDOLPH ROAD","route":"01","routingreg":"5-01","lat":"38.82663443"},"geometry":{"type":"Point","coordinates":[-76.89614792299994,38.82663443000007]}},{"type":"Feature","properties":{"school":"7","city":"TEMPLE HILLS","name":"GREEN VALLEY ACADEMY","legis":"26","congress":"4","council":"7","long":"-76.964424288","imprt_date":"2016-10-01T00:00:00.000Z","precinctid":"06-08","region":"3","address":"2215 CHADWICK STREET","route":"10","routingreg":"3-10","lat":"38.84075108"},"geometry":{"type":"Point","coordinates":[-76.96442428799998,38.840751080000075]}},{"type":"Feature","properties":{"school":"7","city":"TEMPLE HILLS","name":"BENJAMIN STODDERT MIDDLE SCH","legis":"24","congress":"4","council":"7","long":"-76.947621667","imprt_date":"2016-10-01T00:00:00.000Z","precinctid":"06-09","region":"3","address":"2501 OLSON STREET","route":"10","routingreg":"3-10","lat":"38.83018209"},"geometry":{"type":"Point","coordinates":[-76.94762166699996,38.83018209000005]}},{"type":"Feature","properties":{"school":"5","city":"BOWIE","name":"BENJAMIN TASKER MIDDLE SCHOOL","legis":"23A","congress":"4","council":"4","long":"-76.745386554","imprt_date":"2016-10-01T00:00:00.000Z","precinctid":"07-19","region":"0","address":"4901 COLLINGTON ROAD","route":null,"routingreg":null,"lat":"38.957602509"},"geometry":{"type":"Point","coordinates":[-76.74538655399994,38.957602509000026]}},{"type":"Feature","properties":{"school":"5","city":"BOWIE","name":"BENJAMIN TASKER MIDDLE SCHOOL","legis":"23A","congress":"4","council":"4","long":"-76.745386554","imprt_date":"2016-10-01T00:00:00.000Z","precinctid":"07-20","region":"0","address":"4901 COLLINGTON ROAD","route":null,"routingreg":null,"lat":"38.957602509"},"geometry":{"type":"Point","coordinates":[-76.74538655399994,38.957602509000026]}},{"type":"Feature","properties":{"school":"5","city":"BOWIE","name":"BENJAMIN TASKER MIDDLE SCHOOL","legis":"23A","congress":"4","council":"4","long":"-76.745386554","imprt_date":"2016-10-01T00:00:00.000Z","precinctid":"07-21","region":"0","address":"4901 COLLINGTON ROAD","route":null,"routingreg":null,"lat":"38.957602509"},"geometry":{"type":"Point","coordinates":[-76.74538655399994,38.957602509000026]}},{"type":"Feature","properties":{"school":"1","city":"LAUREL","name":"LAUREL ELEMENTARY SCHOOL","legis":"21","congress":"4","council":"1","long":"-76.852514102","imprt_date":"2016-10-01T00:00:00.000Z","precinctid":"10-03","region":"1","address":"516 MONTGOMERY STREET","route":"01","routingreg":"1-01","lat":"39.104819194"},"geometry":{"type":"Point","coordinates":[-76.85251410199999,39.10481919400007]}},{"type":"Feature","properties":{"school":"1","city":"LAUREL","name":"BOND MILL ELEMENTARY SCHOOL","legis":"21","congress":"4","council":"1","long":"-76.895566104","imprt_date":"2016-10-01T00:00:00.000Z","precinctid":"10-05","region":"1","address":"16001 SHERWOOD AVENUE","route":"01","routingreg":"1-01","lat":"39.109730629"},"geometry":{"type":"Point","coordinates":[-76.89556610399995,39.10973062900007]}},{"type":"Feature","properties":{"school":"1","city":"LAUREL","name":"MONTPELIER ELEMENTARY SCHOOL","legis":"23A","congress":"4","council":"1","long":"-76.84590311","imprt_date":"2016-10-01T00:00:00.000Z","precinctid":"10-07","region":"2","address":"9200 MUIRKIRK ROAD","route":"01","routingreg":"2-01","lat":"39.053921213"},"geometry":{"type":"Point","coordinates":[-76.84590310999994,39.05392121300008]}},{"type":"Feature","properties":{"school":"1","city":"LAUREL","name":"DEERFIELD RUN ELEM SCH - CAF","legis":"23A","congress":"4","council":"1","long":"-76.846769871","imprt_date":"2016-10-01T00:00:00.000Z","precinctid":"10-14","region":"2","address":"13000 LAUREL-BOWIE ROAD","route":"01","routingreg":"2-01","lat":"39.071037177"},"geometry":{"type":"Point","coordinates":[-76.84676987099994,39.07103717700005]}},{"type":"Feature","properties":{"school":"2","city":"COLLEGE PARK","name":"COLLEGE PARK CHURCH OF THE NAZARENE","legis":"21","congress":"5","council":"1","long":"-76.922298441","imprt_date":"2016-10-01T00:00:00.000Z","precinctid":"01-08","region":"1","address":"9704 RHODE ISLAND AVENUE","route":"05","routingreg":"1-05","lat":"39.012576598"},"geometry":{"type":"Point","coordinates":[-76.92229844099995,39.01257659800007]}},{"type":"Feature","properties":{"school":"3","city":"HYATTSVILLE","name":"EDMONSTON REC CENTER","legis":"22","congress":"4","council":"5","long":"-76.92918376","imprt_date":"2016-10-01T00:00:00.000Z","precinctid":"16-05","region":"1","address":"5100 TANGLEWOOD DRIVE","route":"07","routingreg":"1-07","lat":"38.951465516"},"geometry":{"type":"Point","coordinates":[-76.92918375999994,38.95146551600004]}},{"type":"Feature","properties":{"school":"2","city":"RIVERDALE","name":"TEMPLETON ELEMENTARY SCHOOL","legis":"22","congress":"4","council":"3","long":"-76.914568193","imprt_date":"2016-10-01T00:00:00.000Z","precinctid":"19-05","region":"1","address":"6001 CARTERS LANE","route":"07","routingreg":"1-07","lat":"38.952505685"},"geometry":{"type":"Point","coordinates":[-76.91456819299998,38.95250568500006]}},{"type":"Feature","properties":{"school":"2","city":"NEW CARROLLTON","name":"UNITED BAPTIST CHURCH","legis":"22","congress":"4","council":"3","long":"-76.877249815","imprt_date":"2016-10-01T00:00:00.000Z","precinctid":"20-12","region":"2","address":"7701 RIVERDALE ROAD","route":"06","routingreg":"2-06","lat":"38.959150898"},"geometry":{"type":"Point","coordinates":[-76.87724981499997,38.959150898000075]}},{"type":"Feature","properties":{"school":"8","city":"OXON HILL","name":"JOHN HANSON MONTESSORI SCHOOL","legis":"26","congress":"4","council":"8","long":"-76.992507493","imprt_date":"2016-10-01T00:00:00.000Z","precinctid":"12-01","region":"5","address":"6360 OXON HILL ROAD","route":"04","routingreg":"5-04","lat":"38.80239632"},"geometry":{"type":"Point","coordinates":[-76.99250749299995,38.80239632000007]}},{"type":"Feature","properties":{"school":"8","city":"OXON HILL","name":"FOREST HEIGHTS ELEM SCH","legis":"26","congress":"4","council":"8","long":"-77.002511652","imprt_date":"2016-10-01T00:00:00.000Z","precinctid":"12-02","region":"5","address":"200 TALBERT DRIVE","route":"02","routingreg":"5-02","lat":"38.815918258"},"geometry":{"type":"Point","coordinates":[-77.00251165199995,38.81591825800007]}},{"type":"Feature","properties":{"school":"8","city":"TEMPLE HILLS","name":"ST. BARNABAS CHURCH - HALL","legis":"25","congress":"4","council":"7","long":"-76.960414015","imprt_date":"2016-10-01T00:00:00.000Z","precinctid":"12-03","region":"3","address":"5203 ST. BARNABAS ROAD","route":"10","routingreg":"3-10","lat":"38.819580034"},"geometry":{"type":"Point","coordinates":[-76.96041401499997,38.81958003400007]}},{"type":"Feature","properties":{"school":"8","city":"OXON HILL","name":"VALLEY VIEW ELEMENTARY SCHOOL","legis":"26","congress":"4","council":"8","long":"-76.976086132","imprt_date":"2016-10-01T00:00:00.000Z","precinctid":"12-04","region":"5","address":"5500 DANBY AVENUE","route":"02","routingreg":"5-02","lat":"38.811705361"},"geometry":{"type":"Point","coordinates":[-76.97608613199998,38.811705361000065]}},{"type":"Feature","properties":{"school":"8","city":"FORT WASHINGTON","name":"FORT FOOTE BAPTIST CHURCH","legis":"26","congress":"4","council":"8","long":"-77.013820125","imprt_date":"2016-10-01T00:00:00.000Z","precinctid":"12-05","region":"5","address":"8310 FORT FOOTE ROAD","route":"04","routingreg":"5-04","lat":"38.774014831"},"geometry":{"type":"Point","coordinates":[-77.01382012499994,38.774014831000045]}},{"type":"Feature","properties":{"school":"2","city":"COLLEGE PARK","name":"UNIV OF MD RITCHIE COLISEUM","legis":"21","congress":"5","council":"3","long":"-76.936446646","imprt_date":"2016-10-01T00:00:00.000Z","precinctid":"21-02","region":"1","address":"ROUTE 1 AND ROSSBOROUGH LANE","route":"06","routingreg":"1-06","lat":"38.985102952"},"geometry":{"type":"Point","coordinates":[-76.93644664599998,38.985102952000034]}},{"type":"Feature","properties":{"school":"1","city":"LAUREL","name":"LAUREL VOLUNTEER FIRE DEPT","legis":"21","congress":"4","council":"1","long":"-76.876837481","imprt_date":"2016-10-01T00:00:00.000Z","precinctid":"10-13","region":"1","address":"7411 CHERRY LANE","route":"01","routingreg":"1-01","lat":"39.093872357"},"geometry":{"type":"Point","coordinates":[-76.87683748099994,39.093872357000066]}},{"type":"Feature","properties":{"school":"4","city":"BLADENSBURG","name":"BLADENSBURG COMMUNITY CENTER","legis":"47A","congress":"4","council":"5","long":"-76.917729914","imprt_date":"2016-10-01T00:00:00.000Z","precinctid":"02-08","region":"2","address":"4500 57TH AVENUE","route":"08","routingreg":"2-08","lat":"38.943578895"},"geometry":{"type":"Point","coordinates":[-76.91772991399995,38.94357889500003]}},{"type":"Feature","properties":{"school":"5","city":"BOWIE","name":"HIGH BRIDGE ELEMENTARY SCHOOL","legis":"23A","congress":"5","council":"4","long":"-76.772332231","imprt_date":"2016-10-01T00:00:00.000Z","precinctid":"14-01","region":"4","address":"7011 HIGH BRIDGE ROAD","route":"02","routingreg":"4-02","lat":"38.986668606"},"geometry":{"type":"Point","coordinates":[-76.77233223099995,38.98666860600008]}},{"type":"Feature","properties":{"school":"4","city":"LANHAM","name":"DUVAL HIGH SCHOOL","legis":"22","congress":"5","council":"3","long":"-76.838019969","imprt_date":"2016-10-01T00:00:00.000Z","precinctid":"14-02","region":"2","address":"9880 GOOD LUCK ROAD","route":"03","routingreg":"2-03","lat":"38.989364361"},"geometry":{"type":"Point","coordinates":[-76.83801996899996,38.98936436100007]}},{"type":"Feature","properties":{"school":"5","city":"BOWIE","name":"BOWIE HIGH SCHOOL","legis":"23A","congress":"5","council":"4","long":"-76.743459177","imprt_date":"2016-10-01T00:00:00.000Z","precinctid":"14-03","region":"4","address":"15200 ANNAPOLIS ROAD","route":"02","routingreg":"4-02","lat":"38.978119045"},"geometry":{"type":"Point","coordinates":[-76.74345917699998,38.97811904500003]}},{"type":"Feature","properties":{"school":"5","city":"BOWIE","name":"SAMUEL OGLE MIDDLE SCHOOL","legis":"23B","congress":"5","council":"4","long":"-76.741325031","imprt_date":"2016-10-01T00:00:00.000Z","precinctid":"14-04","region":"4","address":"4111 CHELMONT LANE","route":"01","routingreg":"4-01","lat":"38.993386437"},"geometry":{"type":"Point","coordinates":[-76.74132503099997,38.99338643700003]}},{"type":"Feature","properties":{"school":"5","city":"BOWIE","name":"ROCKLEDGE ELEMENTARY SCHOOL","legis":"23B","congress":"5","council":"4","long":"-76.757687312","imprt_date":"2016-10-01T00:00:00.000Z","precinctid":"14-05","region":"4","address":"7701 LAUREL-BOWIE ROAD","route":"01","routingreg":"4-01","lat":"38.996668737"},"geometry":{"type":"Point","coordinates":[-76.75768731199997,38.99666873700005]}},{"type":"Feature","properties":{"school":"5","city":"BOWIE","name":"YORKTOWN ELEMENTARY SCHOOL","legis":"23B","congress":"5","council":"4","long":"-76.732997032","imprt_date":"2016-10-01T00:00:00.000Z","precinctid":"14-06","region":"4","address":"7301 RACE TRACK ROAD","route":"01","routingreg":"4-01","lat":"38.989632692"},"geometry":{"type":"Point","coordinates":[-76.73299703199996,38.98963269200004]}},{"type":"Feature","properties":{"school":"1","city":"SEABROOK","name":"ROBERT GODDARD MONTESSORI SCH","legis":"22","congress":"5","council":"4","long":"-76.842268979","imprt_date":"2016-10-01T00:00:00.000Z","precinctid":"14-08","region":"2","address":"9850 GOOD LUCK ROAD","route":"03","routingreg":"2-03","lat":"38.98795853"},"geometry":{"type":"Point","coordinates":[-76.84226897899998,38.98795853000007]}},{"type":"Feature","properties":{"school":"5","city":"BOWIE","name":"ASCENSION CATHOLIC CHURCH - HALL","legis":"23A","congress":"5","council":"4","long":"-76.786781518","imprt_date":"2016-10-01T00:00:00.000Z","precinctid":"14-09","region":"4","address":"12700 LANHAM-SEVERN RD","route":"01","routingreg":"4-01","lat":"39.006287164"},"geometry":{"type":"Point","coordinates":[-76.78678151799994,39.00628716400007]}},{"type":"Feature","properties":{"school":"5","city":"BOWIE","name":"WEST BOWIE VILLAGE HALL","legis":"23A","congress":"5","council":"4","long":"-76.766642902","imprt_date":"2016-10-01T00:00:00.000Z","precinctid":"14-10","region":"4","address":"13711 ANNAPOLIS RD SUITE 103","route":"02","routingreg":"4-02","lat":"38.97001081"},"geometry":{"type":"Point","coordinates":[-76.76664290199994,38.970010810000076]}},{"type":"Feature","properties":{"school":"9","city":"UPPER MARLBORO","name":"MARLTON ELEMENTARY SCHOOL","legis":"23B","congress":"5","council":"9","long":"-76.789218282","imprt_date":"2016-10-01T00:00:00.000Z","precinctid":"15-01","region":"5","address":"8506 OLD COLONY DR SOUTH","route":"12","routingreg":"5-12","lat":"38.772313846"},"geometry":{"type":"Point","coordinates":[-76.78921828199998,38.77231384600003]}},{"type":"Feature","properties":{"school":"9","city":"UPPER MARLBORO","name":"JAMES MADISON MIDDLE SCHOOL","legis":"23B","congress":"5","council":"9","long":"-76.840109475","imprt_date":"2016-10-01T00:00:00.000Z","precinctid":"15-03","region":"5","address":"7300 WOODYARD ROAD","route":"11","routingreg":"5-11","lat":"38.788512179"},"geometry":{"type":"Point","coordinates":[-76.84010947499996,38.788512179000065]}},{"type":"Feature","properties":{"school":"9","city":"UPPER MARLBORO","name":"FREDERICK DOUGLASS HIGH SCHOOL","legis":"23B","congress":"5","council":"9","long":"-76.781522786","imprt_date":"2016-10-01T00:00:00.000Z","precinctid":"15-04","region":"5","address":"8000 CROOM ROAD","route":"12","routingreg":"5-12","lat":"38.781542384"},"geometry":{"type":"Point","coordinates":[-76.78152278599998,38.78154238400003]}},{"type":"Feature","properties":{"school":"7","city":"UPPER MARLBORO","name":"DR. HENRY A. WISE, JR. HIGH SCH","legis":"25","congress":"4","council":"6","long":"-76.788947644","imprt_date":"2016-10-01T00:00:00.000Z","precinctid":"15-05","region":"4","address":"12650 BROOKE LANE","route":"07","routingreg":"4-07","lat":"38.833948796"},"geometry":{"type":"Point","coordinates":[-76.78894764399996,38.83394879600007]}},{"type":"Feature","properties":{"school":"3","city":"EDMONSTON","name":"EDMONSTON MUNICIPAL BUILDING","legis":"22","congress":"4","council":"5","long":"-76.929703969","imprt_date":"2016-10-01T00:00:00.000Z","precinctid":"16-01","region":"1","address":"5005 52ND AVENUE","route":"07","routingreg":"1-07","lat":"38.949957119"},"geometry":{"type":"Point","coordinates":[-76.92970396899995,38.94995711900003]}},{"type":"Feature","properties":{"school":"3","city":"HYATTSVILLE","name":"HYATTSVILLE MUNICIPAL BLDG - MPR","legis":"22","congress":"4","council":"2","long":"-76.941756421","imprt_date":"2016-10-01T00:00:00.000Z","precinctid":"16-02","region":"1","address":"4310 GALLATIN STREET","route":"10","routingreg":"1-10","lat":"38.952939827"},"geometry":{"type":"Point","coordinates":[-76.94175642099998,38.95293982700008]}},{"type":"Feature","properties":{"school":"3","city":"HYATTSVILLE","name":"HYATTSVILLE MIDDLE SCHOOL","legis":"22","congress":"5","council":"2","long":"-76.944923298","imprt_date":"2016-10-01T00:00:00.000Z","precinctid":"16-03","region":"1","address":"6001 42ND AVENUE","route":"10","routingreg":"1-10","lat":"38.96016874"},"geometry":{"type":"Point","coordinates":[-76.94492329799994,38.96016874000003]}},{"type":"Feature","properties":{"school":"3","city":"HYATTSVILLE","name":"NICHOLAS OREM MIDDLE SCHOOL","legis":"22","congress":"4","council":"2","long":"-76.960213349","imprt_date":"2016-10-01T00:00:00.000Z","precinctid":"16-04","region":"1","address":"6100 EDITORS PARK DRIVE","route":"08","routingreg":"1-08","lat":"38.964392285"},"geometry":{"type":"Point","coordinates":[-76.96021334899996,38.96439228500003]}},{"type":"Feature","properties":{"school":"3","city":"MOUNT RAINIER","name":"MOUNT RAINIER ELEM SCH","legis":"47A","congress":"4","council":"2","long":"-76.962856584","imprt_date":"2016-10-01T00:00:00.000Z","precinctid":"17-01","region":"1","address":"4011 32ND STREET","route":"10","routingreg":"1-10","lat":"38.938929307"},"geometry":{"type":"Point","coordinates":[-76.96285658399995,38.93892930700008]}},{"type":"Feature","properties":{"school":"6","city":"LANDOVER","name":"OAKCREST ELEM SCH - MPR","legis":"24","congress":"4","council":"5","long":"-76.887705022","imprt_date":"2016-10-01T00:00:00.000Z","precinctid":"13-16","region":"3","address":"929 HILL ROAD","route":"04","routingreg":"3-04","lat":"38.903835752"},"geometry":{"type":"Point","coordinates":[-76.88770502199998,38.90383575200008]}},{"type":"Feature","properties":{"school":"7","city":"UPPER MARLBORO","name":"ARROWHEAD ELEM SCH - M/P RM","legis":"25","congress":"4","council":"6","long":"-76.842885107","imprt_date":"2016-10-01T00:00:00.000Z","precinctid":"15-02","region":"4","address":"2300 SANSBURY ROAD","route":"07","routingreg":"4-07","lat":"38.856810519"},"geometry":{"type":"Point","coordinates":[-76.84288510699997,38.85681051900008]}},{"type":"Feature","properties":{"school":"5","city":"UPPER MARLBORO","name":"BARACK OBAMA ELEMENTARY SCHOOL","legis":"25","congress":"4","council":"6","long":"-76.786313642","imprt_date":"2016-10-01T00:00:00.000Z","precinctid":"03-07","region":"0","address":"12700 BROOKE ROAD","route":null,"routingreg":null,"lat":"38.834289667"},"geometry":{"type":"Point","coordinates":[-76.78631364199998,38.834289667000064]}},{"type":"Feature","properties":{"school":"5","city":"UPPER MARLBORO","name":"PATUXENT ELEMENTARY SCHOOL","legis":"23B","congress":"5","council":"4","long":"-76.709745395","imprt_date":"2016-10-01T00:00:00.000Z","precinctid":"03-08","region":"0","address":"4410 BISHOPMILL DRIVE","route":null,"routingreg":null,"lat":"38.827524181"},"geometry":{"type":"Point","coordinates":[-76.70974539499997,38.82752418100006]}},{"type":"Feature","properties":{"school":"7","city":"TEMPLE HILLS","name":"MARLOW HEIGHTS COMMUNITY CENTER","legis":"24","congress":"4","council":"7","long":"-76.94610912","imprt_date":"2016-10-01T00:00:00.000Z","precinctid":"06-26","region":"0","address":"2800 ST CLAIR DRIVE","route":null,"routingreg":null,"lat":"38.834533376"},"geometry":{"type":"Point","coordinates":[-76.94610911999996,38.834533376000024]}},{"type":"Feature","properties":{"school":"7","city":"SUITLAND","name":"BENJAMIN D. FOULOIS CREATIVE AND PERFORMING ARTS ACADEMY","legis":"25","congress":"4","council":"7","long":"-76.886931999","imprt_date":"2016-10-01T00:00:00.000Z","precinctid":"06-27","region":"0","address":"4601 BEAUFORD ROAD","route":null,"routingreg":null,"lat":"38.826748636"},"geometry":{"type":"Point","coordinates":[-76.88693199899996,38.82674863600005]}},{"type":"Feature","properties":{"school":"7","city":"SUITLAND","name":"PRINCETON ELEMENTARY SCHOOL","legis":"26","congress":"4","council":"8","long":"-76.90232323","imprt_date":"2016-10-01T00:00:00.000Z","precinctid":"06-28","region":"0","address":"6101 BAXTER DRIVE","route":null,"routingreg":null,"lat":"38.813241699"},"geometry":{"type":"Point","coordinates":[-76.90232322999998,38.81324169900006]}},{"type":"Feature","properties":{"school":"7","city":"TEMPLE HILLS","name":"TEMPLE HILLS COMMUNITY CENTER","legis":"25","congress":"4","council":"7","long":"-76.937312606","imprt_date":"2016-10-01T00:00:00.000Z","precinctid":"06-29","region":"0","address":"5300 TEMPLE HILL ROAD","route":null,"routingreg":null,"lat":"38.814180349"},"geometry":{"type":"Point","coordinates":[-76.93731260599998,38.814180349000026]}},{"type":"Feature","properties":{"school":"5","city":"BOWIE","name":"WOODMORE ELEMENTARY SCHOOL","legis":"23B","congress":"4","council":"6","long":"-76.789012289","imprt_date":"2016-10-01T00:00:00.000Z","precinctid":"07-18","region":"0","address":"12500 WOODMORE ROAD","route":null,"routingreg":null,"lat":"38.925730562"},"geometry":{"type":"Point","coordinates":[-76.78901228899997,38.92573056200007]}},{"type":"Feature","properties":{"school":"5","city":"BOWIE","name":"WOODMORE ELEMENTARY SCHOOL","legis":"23B","congress":"4","council":"4","long":"-76.789012289","imprt_date":"2016-10-01T00:00:00.000Z","precinctid":"07-24","region":"0","address":"12500 WOODMORE ROAD","route":null,"routingreg":null,"lat":"38.925730562"},"geometry":{"type":"Point","coordinates":[-76.78901228899997,38.92573056200007]}},{"type":"Feature","properties":{"school":"4","city":"LANHAM","name":"MOUNT CALVARY BAPTIST CHURCH","legis":"22","congress":"4","council":"5","long":"-76.854917108","imprt_date":"2016-10-01T00:00:00.000Z","precinctid":"20-11","region":"2","address":"5120 WHITFIELD CHAPEL ROAD","route":"07","routingreg":"2-07","lat":"38.948744375"},"geometry":{"type":"Point","coordinates":[-76.85491710799994,38.94874437500005]}},{"type":"Feature","properties":{"school":"5","city":"GLENN DALE","name":"REID TEMPLE AME CHURCH","legis":"24","congress":"5","council":"4","long":"-76.808762973","imprt_date":"2016-10-01T00:00:00.000Z","precinctid":"14-15","region":"0","address":"11400 GLENN DALE BOULEVARD","route":null,"routingreg":null,"lat":"38.984714872"},"geometry":{"type":"Point","coordinates":[-76.80876297299994,38.98471487200004]}},{"type":"Feature","properties":{"school":"5","city":"BOWIE","name":"COLLINGTON STATION REC ASSOCIATION","legis":"23B","congress":"4","council":"6","long":"-76.743170119","imprt_date":"2016-10-01T00:00:00.000Z","precinctid":"07-23","region":"0","address":"375 JOHNSBERG LANE","route":null,"routingreg":null,"lat":"38.898736783"},"geometry":{"type":"Point","coordinates":[-76.74317011899996,38.89873678300006]}},{"type":"Feature","properties":{"school":"9","city":"CLINTON","name":"TANGLEWOOD SCHOOL","legis":"25","congress":"5","council":"9","long":"-76.870406124","imprt_date":"2016-10-01T00:00:00.000Z","precinctid":"11-05","region":"0","address":"8333 WOODYARD ROAD","route":null,"routingreg":null,"lat":"38.775907432"},"geometry":{"type":"Point","coordinates":[-76.87040612399994,38.775907432000054]}},{"type":"Feature","properties":{"school":"8","city":"TEMPLE HILLS","name":"MT. RONA MISSIONARY BAPTIST CHURCH","legis":"26","congress":"5","council":"8","long":"-76.912958597","imprt_date":"2016-10-01T00:00:00.000Z","precinctid":"09-13","region":"0","address":"5406 BRINKLEY ROAD","route":null,"routingreg":null,"lat":"38.804038594"},"geometry":{"type":"Point","coordinates":[-76.91295859699994,38.804038594000076]}},{"type":"Feature","properties":{"school":"9","city":"TEMPLE HILLS","name":"MT. RONA MISSIONARY BAPTIST CHURCH","legis":"26","congress":"4","council":"8","long":"-76.912958597","imprt_date":"2016-10-01T00:00:00.000Z","precinctid":"09-14","region":"0","address":"5406 BRINKLEY ROAD","route":null,"routingreg":null,"lat":"38.804038594"},"geometry":{"type":"Point","coordinates":[-76.91295859699994,38.804038594000076]}},{"type":"Feature","properties":{"school":"9","city":"UPPER MARLBORO","name":"MELWOOD ELEMENTARY SCHOOL","legis":"25","congress":"5","council":"8","long":"-76.83805157","imprt_date":"2016-10-01T00:00:00.000Z","precinctid":"09-15","region":"0","address":"7100 WOODYARD ROAD","route":null,"routingreg":null,"lat":"38.790744742"},"geometry":{"type":"Point","coordinates":[-76.83805156999995,38.79074474200007]}},{"type":"Feature","properties":{"school":"8","city":"FORT WASHINGTON","name":"ISAAC GOURDINE MIDDLE SCHOOL","legis":"26","congress":"4","council":"8","long":"-76.951347581","imprt_date":"2016-10-01T00:00:00.000Z","precinctid":"09-12","region":"0","address":"8700 ALLENTOWN ROAD","route":null,"routingreg":null,"lat":"38.769603768"},"geometry":{"type":"Point","coordinates":[-76.95134758099994,38.769603768000025]}},{"type":"Feature","properties":{"school":"8","city":"TEMPLE HILLS","name":"HILLCREST HEIGHTS ELEM SCHOOL","legis":"25","congress":"4","council":"8","long":"-76.960000994","imprt_date":"2016-10-01T00:00:00.000Z","precinctid":"12-18","region":"0","address":"4305 22ND PLACE","route":null,"routingreg":null,"lat":"38.829815762"},"geometry":{"type":"Point","coordinates":[-76.96000099399998,38.82981576200007]}},{"type":"Feature","properties":{"school":"1","city":"GLENN DALE","name":"GLENN DALE COMMUNITY CENTER","legis":"24","congress":"5","council":"4","long":"-76.801120862","imprt_date":"2016-10-01T00:00:00.000Z","precinctid":"14-12","region":"0","address":"11901 GLENN DALE BOULEVARD","route":null,"routingreg":null,"lat":"38.974277672"},"geometry":{"type":"Point","coordinates":[-76.80112086199995,38.97427767200003]}},{"type":"Feature","properties":{"school":"5","city":"BOWIE","name":"HUNTINGTON COMMUNITY CENTER","legis":"23A","congress":"5","council":"4","long":"-76.779491796","imprt_date":"2016-10-01T00:00:00.000Z","precinctid":"14-13","region":"0","address":"13022 8TH STREET","route":null,"routingreg":null,"lat":"39.009493415"},"geometry":{"type":"Point","coordinates":[-76.77949179599995,39.009493415000065]}},{"type":"Feature","properties":{"school":"5","city":"BOWIE","name":"BOWIE STATE UNIVERSITY-MCKELDIN GYM","legis":"23B","congress":"5","council":"4","long":"-76.759246563","imprt_date":"2016-10-01T00:00:00.000Z","precinctid":"14-14","region":"0","address":"14000 JERICHO PARK ROAD","route":null,"routingreg":null,"lat":"39.02060456"},"geometry":{"type":"Point","coordinates":[-76.75924656299998,39.02060456000004]}},{"type":"Feature","properties":{"school":"1","city":"BOWIE","name":"ASCENSION CATHOLIC CHURCH  HALL","legis":"23A","congress":"5","council":"4","long":"-76.786781518","imprt_date":"2016-10-01T00:00:00.000Z","precinctid":"14-16","region":"0","address":"12700 LANHAM-SEVERN ROAD","route":null,"routingreg":null,"lat":"39.006287164"},"geometry":{"type":"Point","coordinates":[-76.78678151799994,39.00628716400007]}},{"type":"Feature","properties":{"school":"5","city":"GLENN DALE","name":"GLENN DALE COMMUNITY CENTER","legis":"24","congress":"5","council":"4","long":"-76.801120862","imprt_date":"2016-10-01T00:00:00.000Z","precinctid":"14-17","region":"0","address":"11901 GLENN DALE BOULEVARD","route":null,"routingreg":null,"lat":"38.974277672"},"geometry":{"type":"Point","coordinates":[-76.80112086199995,38.97427767200003]}},{"type":"Feature","properties":{"school":"3","city":"TAKOMA PARK","name":"CAROLE HIGHLANDS ELEM SCH","legis":"47B","congress":"4","council":"2","long":"-76.983497327","imprt_date":"2016-10-01T00:00:00.000Z","precinctid":"17-13","region":"0","address":"1610 HANNON STREET","route":null,"routingreg":null,"lat":"38.983753349"},"geometry":{"type":"Point","coordinates":[-76.98349732699995,38.98375334900004]}},{"type":"Feature","properties":{"school":"3","city":"HYATTSVILLE","name":"THE WORD OF GOD BAPTIST CHURCH","legis":"22","congress":"4","council":"2","long":"-76.943034206","imprt_date":"2016-10-01T00:00:00.000Z","precinctid":"17-14","region":"0","address":"6513 QUEENS CHAPEL ROAD","route":null,"routingreg":null,"lat":"38.968988757"},"geometry":{"type":"Point","coordinates":[-76.94303420599994,38.968988757000034]}},{"type":"Feature","properties":{"school":"3","city":"HYATTSVILLE","name":"THE WORD OF GOD BAPTIST CHURCH","legis":"22","congress":"4","council":"2","long":"-76.943034206","imprt_date":"2016-10-01T00:00:00.000Z","precinctid":"17-15","region":"0","address":"6513 QUEENS CHAPEL ROAD","route":null,"routingreg":null,"lat":"38.968988757"},"geometry":{"type":"Point","coordinates":[-76.94303420599994,38.968988757000034]}},{"type":"Feature","properties":{"school":"8","city":"TEMPLE HILLS","name":"PGCPS BLDG","legis":"26","congress":"4","council":"8","long":"-76.92354484","imprt_date":"2016-10-01T00:00:00.000Z","precinctid":"06-13","region":"5","address":"4815 DALTON STREET","route":"01","routingreg":"5-01","lat":"38.810129244"},"geometry":{"type":"Point","coordinates":[-76.92354483999998,38.81012924400005]}},{"type":"Feature","properties":{"school":"7","city":"TEMPLE HILLS","name":"TEMPLE HILLS COMMUNITY CENTER","legis":"25","congress":"4","council":"8","long":"-76.937312606","imprt_date":"2016-10-01T00:00:00.000Z","precinctid":"06-14","region":"5","address":"5300 TEMPLE HILL ROAD","route":"03","routingreg":"5-03","lat":"38.814180349"},"geometry":{"type":"Point","coordinates":[-76.93731260599998,38.814180349000026]}},{"type":"Feature","properties":{"school":"7","city":"SUITLAND","name":"EDGAR ALLAN POE ALT. ELEM SCH","legis":"24","congress":"4","council":"7","long":"-76.933203724","imprt_date":"2016-10-01T00:00:00.000Z","precinctid":"06-15","region":"3","address":"2001 SHADYSIDE AVENUE","route":"07","routingreg":"3-07","lat":"38.862931763"},"geometry":{"type":"Point","coordinates":[-76.93320372399995,38.86293176300006]}},{"type":"Feature","properties":{"school":"9","city":"CLINTON","name":"SURRATTSVILLE HIGH SCHOOL","legis":"27A","congress":"5","council":"9","long":"-76.901265295","imprt_date":"2016-10-01T00:00:00.000Z","precinctid":"09-04","region":"5","address":"6101 GARDEN DRIVE","route":"10","routingreg":"5-10","lat":"38.762117663"},"geometry":{"type":"Point","coordinates":[-76.90126529499997,38.762117663000026]}},{"type":"Feature","properties":{"school":"8","city":"FORT WASHINGTON","name":"ISAAC GOURDINE MIDDLE SCHOOL","legis":"26","congress":"5","council":"8","long":"-76.951347581","imprt_date":"2016-10-01T00:00:00.000Z","precinctid":"09-05","region":"5","address":"8700 ALLENTOWN ROAD","route":"05","routingreg":"5-05","lat":"38.769603768"},"geometry":{"type":"Point","coordinates":[-76.95134758099994,38.769603768000025]}},{"type":"Feature","properties":{"school":"9","city":"CLINTON","name":"CLINTON BAPTIST CHURCH","legis":"25","congress":"5","council":"9","long":"-76.879679088","imprt_date":"2016-10-01T00:00:00.000Z","precinctid":"09-06","region":"5","address":"8701 WOODYARD ROAD","route":"09","routingreg":"5-09","lat":"38.770989791"},"geometry":{"type":"Point","coordinates":[-76.87967908799999,38.770989791000034]}},{"type":"Feature","properties":{"school":"1","city":"BELTSVILLE","name":"BELTSVILLE COMMUNITY CENTER","legis":"21","congress":"5","council":"1","long":"-76.93232978","imprt_date":"2016-10-01T00:00:00.000Z","precinctid":"01-02","region":"1","address":"3900 SELLMAN RD","route":"03","routingreg":"1-03","lat":"39.038147458"},"geometry":{"type":"Point","coordinates":[-76.93232977999998,39.038147458000026]}},{"type":"Feature","properties":{"school":"4","city":"LANDOVER HILLS","name":"WEST LANHAM HILLS RECREATION CENTER","legis":"22","congress":"4","council":"3","long":"-76.881091743","imprt_date":"2016-10-01T00:00:00.000Z","precinctid":"02-10","region":"2","address":"7700 DECATUR ROAD","route":"06","routingreg":"2-06","lat":"38.948422188"},"geometry":{"type":"Point","coordinates":[-76.88109174299996,38.94842218800005]}},{"type":"Feature","properties":{"school":"5","city":"BOWIE","name":"KENILWORTH ELEMENTARY SCHOOL","legis":"23B","congress":"5","council":"4","long":"-76.734613201","imprt_date":"2016-10-01T00:00:00.000Z","precinctid":"07-03","region":"4","address":"12520 KEMBRIDGE DRIVE","route":"03","routingreg":"4-03","lat":"38.959218098"},"geometry":{"type":"Point","coordinates":[-76.73461320099995,38.959218098000065]}}]
}